[{"name":"Tokyo","lat":35.685,"lon":139.7514,"population":0,"timezone":"Asia/Tokyo","country":"Japan"},{"name":"New York","lat":40.6943,"lon":-73.9249,"population":0,"timezone":"America/New_York","country":"United States"},{"name":"Mexico City","lat":19.4424,"lon":-99.131,"population":0,"timezone":"America/Mexico_City","country":"Mexico"},{"name":"Mumbai","lat":19.017,"lon":72.857,"population":0,"timezone":"Asia/Kolkata","country":"India"},{"name":"São Paulo","lat":-23.5587,"lon":-46.625,"population":0,"timezone":"America/Sao_Paulo","country":"Brazil"},{"name":"Delhi","lat":28.67,"lon":77.23,"population":0,"timezone":"Asia/Kolkata","country":"India"},{"name":"Shanghai","lat":31.2165,"lon":121.4365,"population":0,"timezone":"Asia/Shanghai","country":"China"},{"name":"Kolkata","lat":22.495,"lon":88.3247,"population":0,"timezone":"Asia/Kolkata","country":"India"},{"name":"Los Angeles","lat":34.1139,"lon":-118.4068,"population":0,"timezone":"America/Los_Angeles","country":"United States"},{"name":"Dhaka","lat":23.7231,"lon":90.4086,"population":0,"timezone":"Asia/Dhaka","country":"Bangladesh"},{"name":"Buenos Aires","lat":-34.6025,"lon":-58.3975,"population":0,"timezone":"America/Argentina/Buenos_Aires","country":"Argentina"},{"name":"Karachi","lat":24.87,"lon":66.99,"population":0,"timezone":"Asia/Karachi","country":"Pakistan"},{"name":"Cairo","lat":30.05,"lon":31.25,"population":0,"timezone":"Africa/Cairo","country":"Egypt"},{"name":"Rio de Janeiro","lat":-22.925,"lon":-43.225,"population":0,"timezone":"America/Sao_Paulo","country":"Brazil"},{"name":"Ōsaka","lat":34.75,"lon":135.4601,"population":0,"timezone":"Asia/Tokyo","country":"Japan"},{"name":"Beijing","lat":39.9289,"lon":116.3883,"population":0,"timezone":"Asia/Shanghai","country":"China"},{"name":"Manila","lat":14.6042,"lon":120.9822,"population":0,"timezone":"Asia/Manila","country":"Philippines"},{"name":"Moscow","lat":55.7522,"lon":37.6155,"population":0,"timezone":"Europe/Moscow","country":"Russia"},{"name":"Istanbul","lat":41.105,"lon":29.01,"population":0,"timezone":"Europe/Istanbul","country":"Turkey"},{"name":"Paris","lat":48.8667,"lon":2.3333,"population":0,"timezone":"Europe/Paris","country":"France"},{"name":"Seoul","lat":37.5663,"lon":126.9997,"population":0,"timezone":"Asia/Seoul","country":"\"Korea"},{"name":"Lagos","lat":6.4433,"lon":3.3915,"population":0,"timezone":"Africa/Lagos","country":"Nigeria"},{"name":"Jakarta","lat":-6.1744,"lon":106.8294,"population":0,"timezone":"Asia/Jakarta","country":"Indonesia"},{"name":"Guangzhou","lat":23.145,"lon":113.325,"population":0,"timezone":"Asia/Shanghai","country":"China"},{"name":"Chicago","lat":41.8373,"lon":-87.6861,"population":0,"timezone":"America/Chicago","country":"United States"},{"name":"London","lat":51.5,"lon":-0.1167,"population":0,"timezone":"Europe/London","country":"United Kingdom"},{"name":"Lima","lat":-12.048,"lon":-77.0501,"population":0,"timezone":"America/Lima","country":"Peru"},{"name":"Tehran","lat":35.6719,"lon":51.4243,"population":0,"timezone":"Asia/Tehran","country":"Iran"},{"name":"Kinshasa","lat":-4.3297,"lon":15.315,"population":0,"timezone":"Africa/Kinshasa","country":"Congo (Kinshasa)"},{"name":"Bogota","lat":4.5964,"lon":-74.0833,"population":0,"timezone":"America/Bogota","country":"Colombia"},{"name":"Shenzhen","lat":22.5524,"lon":114.1221,"population":0,"timezone":"Asia/Shanghai","country":"China"},{"name":"Wuhan","lat":30.58,"lon":114.27,"population":0,"timezone":"Asia/Shanghai","country":"China"},{"name":"Hong Kong","lat":22.305,"lon":114.185,"population":0,"timezone":"Asia/Hong_Kong","country":"Hong Kong"},{"name":"Tianjin","lat":39.13,"lon":117.2,"population":0,"timezone":"Asia/Shanghai","country":"China"},{"name":"Chennai","lat":13.09,"lon":80.28,"population":0,"timezone":"Asia/Kolkata","country":"India"},{"name":"Taipei","lat":25.0358,"lon":121.5683,"population":0,"timezone":"Asia/Taipei","country":"Taiwan"},{"name":"Bangalore","lat":12.97,"lon":77.56,"population":0,"timezone":"Asia/Kolkata","country":"India"},{"name":"Bangkok","lat":13.75,"lon":100.5166,"population":0,"timezone":"Asia/Bangkok","country":"Thailand"},{"name":"Lahore","lat":31.56,"lon":74.35,"population":0,"timezone":"Asia/Karachi","country":"Pakistan"},{"name":"Chongqing","lat":29.565,"lon":106.595,"population":0,"timezone":"Asia/Shanghai","country":"China"},{"name":"Miami","lat":25.784,"lon":-80.2102,"population":0,"timezone":"America/New_York","country":"United States"},{"name":"Hyderabad","lat":17.4,"lon":78.48,"population":0,"timezone":"Asia/Kolkata","country":"India"},{"name":"Dallas","lat":32.7937,"lon":-96.7662,"population":0,"timezone":"America/Chicago","country":"United States"},{"name":"Santiago","lat":-33.45,"lon":-70.667,"population":0,"timezone":"America/Santiago","country":"Chile"},{"name":"Philadelphia","lat":40.0076,"lon":-75.134,"population":0,"timezone":"America/New_York","country":"United States"},{"name":"Belo Horizonte","lat":-19.915,"lon":-43.915,"population":0,"timezone":"America/Sao_Paulo","country":"Brazil"},{"name":"Madrid","lat":40.4,"lon":-3.6834,"population":0,"timezone":"Europe/Madrid","country":"Spain"},{"name":"Houston","lat":29.7868,"lon":-95.3905,"population":0,"timezone":"America/Chicago","country":"United States"},{"name":"Ahmedabad","lat":23.0301,"lon":72.58,"population":0,"timezone":"Asia/Kolkata","country":"India"},{"name":"Ho Chi Minh City","lat":10.78,"lon":106.695,"population":0,"timezone":"Asia/Ho_Chi_Minh","country":"Vietnam"},{"name":"Washington","lat":38.9047,"lon":-77.0163,"population":0,"timezone":"America/New_York","country":"United States"},{"name":"Atlanta","lat":33.7626,"lon":-84.4228,"population":0,"timezone":"America/New_York","country":"United States"},{"name":"Toronto","lat":43.7,"lon":-79.42,"population":0,"timezone":"America/Toronto","country":"Canada"},{"name":"Singapore","lat":1.293,"lon":103.8558,"population":0,"timezone":"Asia/Singapore","country":"Singapore"},{"name":"Luanda","lat":-8.8383,"lon":13.2344,"population":0,"timezone":"Africa/Luanda","country":"Angola"},{"name":"Baghdad","lat":33.3386,"lon":44.3939,"population":0,"timezone":"Asia/Baghdad","country":"Iraq"},{"name":"Barcelona","lat":41.3833,"lon":2.1834,"population":0,"timezone":"Europe/Madrid","country":"Spain"},{"name":"Haora","lat":22.5804,"lon":88.3299,"population":0,"timezone":"Asia/Kolkata","country":"India"},{"name":"Shenyeng","lat":41.805,"lon":123.45,"population":0,"timezone":"Asia/Shanghai","country":"China"},{"name":"Khartoum","lat":15.5881,"lon":32.5342,"population":0,"timezone":"Africa/Khartoum","country":"Sudan"},{"name":"Pune","lat":18.53,"lon":73.85,"population":0,"timezone":"Asia/Kolkata","country":"India"},{"name":"Boston","lat":42.3188,"lon":-71.0846,"population":0,"timezone":"America/New_York","country":"United States"},{"name":"Sydney","lat":-33.92,"lon":151.1852,"population":0,"timezone":"Australia/Sydney","country":"Australia"},{"name":"St. Petersburg","lat":59.939,"lon":30.316,"population":0,"timezone":"Europe/Moscow","country":"Russia"},{"name":"Chittagong","lat":22.33,"lon":91.8,"population":0,"timezone":"Asia/Dhaka","country":"Bangladesh"},{"name":"Dongguan","lat":23.0489,"lon":113.7447,"population":0,"timezone":"Asia/Shanghai","country":"China"},{"name":"Riyadh","lat":24.6408,"lon":46.7727,"population":0,"timezone":"Asia/Riyadh","country":"Saudi Arabia"},{"name":"Hanoi","lat":21.0333,"lon":105.85,"population":0,"timezone":"Asia/Bangkok","country":"Vietnam"},{"name":"Guadalajara","lat":20.67,"lon":-103.33,"population":0,"timezone":"America/Mexico_City","country":"Mexico"},{"name":"Melbourne","lat":-37.82,"lon":144.975,"population":0,"timezone":"Australia/Melbourne","country":"Australia"},{"name":"Alexandria","lat":31.2,"lon":29.95,"population":0,"timezone":"Africa/Cairo","country":"Egypt"},{"name":"Chengdu","lat":30.67,"lon":104.07,"population":0,"timezone":"Asia/Shanghai","country":"China"},{"name":"Rangoon","lat":16.7834,"lon":96.1667,"population":0,"timezone":"Asia/Yangon","country":"Burma"},{"name":"Phoenix","lat":33.5722,"lon":-112.0891,"population":0,"timezone":"America/Phoenix","country":"United States"},{"name":"Xian","lat":34.275,"lon":108.895,"population":0,"timezone":"Asia/Shanghai","country":"China"},{"name":"Porto Alegre","lat":-30.05,"lon":-51.2,"population":0,"timezone":"America/Sao_Paulo","country":"Brazil"},{"name":"Surat","lat":21.2,"lon":72.84,"population":0,"timezone":"Asia/Kolkata","country":"India"},{"name":"Hechi","lat":23.0965,"lon":109.6091,"population":0,"timezone":"Asia/Shanghai","country":"China"},{"name":"Abidjan","lat":5.32,"lon":-4.04,"population":0,"timezone":"Africa/Abidjan","country":"Côte D’Ivoire"},{"name":"Brasília","lat":-15.7833,"lon":-47.9161,"population":0,"timezone":"America/Sao_Paulo","country":"Brazil"},{"name":"Ankara","lat":39.9272,"lon":32.8644,"population":0,"timezone":"Europe/Istanbul","country":"Turkey"},{"name":"Monterrey","lat":25.67,"lon":-100.33,"population":0,"timezone":"America/Monterrey","country":"Mexico"},{"name":"Yokohama","lat":35.32,"lon":139.58,"population":0,"timezone":"Asia/Tokyo","country":"Japan"},{"name":"Nanjing","lat":32.05,"lon":118.78,"population":0,"timezone":"Asia/Shanghai","country":"China"},{"name":"Montréal","lat":45.5,"lon":-73.5833,"population":0,"timezone":"America/Toronto","country":"Canada"},{"name":"Guiyang","lat":26.58,"lon":106.72,"population":0,"timezone":"Asia/Shanghai","country":"China"},{"name":"Recife","lat":-8.0756,"lon":-34.9156,"population":0,"timezone":"America/Recife","country":"Brazil"},{"name":"Seattle","lat":47.6211,"lon":-122.3244,"population":0,"timezone":"America/Los_Angeles","country":"United States"},{"name":"Harbin","lat":45.75,"lon":126.65,"population":0,"timezone":"Asia/Shanghai","country":"China"},{"name":"San Francisco","lat":37.7562,"lon":-122.443,"population":0,"timezone":"America/Los_Angeles","country":"United States"},{"name":"Fortaleza","lat":-3.75,"lon":-38.58,"population":0,"timezone":"America/Fortaleza","country":"Brazil"},{"name":"Zhangzhou","lat":24.5204,"lon":117.67,"population":0,"timezone":"Asia/Shanghai","country":"China"},{"name":"Detroit","lat":42.3834,"lon":-83.1024,"population":0,"timezone":"America/Detroit","country":"United States"},{"name":"Salvador","lat":-12.97,"lon":-38.48,"population":0,"timezone":"America/Bahia","country":"Brazil"},{"name":"Busan","lat":35.0951,"lon":129.01,"population":0,"timezone":"Asia/Seoul","country":"\"Korea"},{"name":"Johannesburg","lat":-26.17,"lon":28.03,"population":0,"timezone":"Africa/Johannesburg","country":"South Africa"},{"name":"Berlin","lat":52.5218,"lon":13.4015,"population":0,"timezone":"Europe/Berlin","country":"Germany"},{"name":"Algiers","lat":36.7631,"lon":3.0506,"population":0,"timezone":"Africa/Algiers","country":"Algeria"},{"name":"Rome","lat":41.896,"lon":12.4833,"population":0,"timezone":"Europe/Rome","country":"Italy"},{"name":"Pyongyang","lat":39.0194,"lon":125.7547,"population":0,"timezone":"Asia/Pyongyang","country":"\"Korea"},{"name":"Medellín","lat":6.275,"lon":-75.575,"population":0,"timezone":"America/Bogota","country":"Colombia"},{"name":"Kabul","lat":34.5167,"lon":69.1833,"population":0,"timezone":"Asia/Kabul","country":"Afghanistan"},{"name":"Athens","lat":37.9833,"lon":23.7333,"population":0,"timezone":"Europe/Athens","country":"Greece"},{"name":"Nagoya","lat":35.155,"lon":136.915,"population":0,"timezone":"Asia/Tokyo","country":"Japan"},{"name":"Cape Town","lat":-33.92,"lon":18.435,"population":0,"timezone":"Africa/Johannesburg","country":"South Africa"},{"name":"San Diego","lat":32.8312,"lon":-117.1226,"population":0,"timezone":"America/Los_Angeles","country":"United States"},{"name":"Changchun","lat":43.865,"lon":125.34,"population":0,"timezone":"Asia/Shanghai","country":"China"},{"name":"Casablanca","lat":33.6,"lon":-7.6164,"population":0,"timezone":"Africa/Casablanca","country":"Morocco"},{"name":"Dalian","lat":38.9228,"lon":121.6298,"population":0,"timezone":"Asia/Shanghai","country":"China"},{"name":"Kanpur","lat":26.46,"lon":80.32,"population":0,"timezone":"Asia/Kolkata","country":"India"},{"name":"Kano","lat":12,"lon":8.52,"population":0,"timezone":"Africa/Lagos","country":"Nigeria"},{"name":"Tel Aviv-Yafo","lat":32.08,"lon":34.77,"population":0,"timezone":"Asia/Jerusalem","country":"Israel"},{"name":"Addis Ababa","lat":9.0333,"lon":38.7,"population":0,"timezone":"Africa/Addis_Ababa","country":"Ethiopia"},{"name":"Curitiba","lat":-25.42,"lon":-49.32,"population":0,"timezone":"America/Sao_Paulo","country":"Brazil"},{"name":"Zibo","lat":36.8,"lon":118.05,"population":0,"timezone":"Asia/Shanghai","country":"China"},{"name":"Jeddah","lat":21.5169,"lon":39.2192,"population":0,"timezone":"Asia/Riyadh","country":"Saudi Arabia"},{"name":"Nairobi","lat":-1.2833,"lon":36.8167,"population":0,"timezone":"Africa/Nairobi","country":"Kenya"},{"name":"Hangzhou","lat":30.25,"lon":120.17,"population":0,"timezone":"Asia/Shanghai","country":"China"},{"name":"Benoni","lat":-26.1496,"lon":28.3299,"population":0,"timezone":"Africa/Johannesburg","country":"South Africa"},{"name":"Caracas","lat":10.501,"lon":-66.917,"population":0,"timezone":"America/Caracas","country":"Venezuela"},{"name":"Milan","lat":45.47,"lon":9.205,"population":0,"timezone":"Europe/Rome","country":"Italy"},{"name":"Stuttgart","lat":48.78,"lon":9.2,"population":0,"timezone":"Europe/Berlin","country":"Germany"},{"name":"Kunming","lat":25.07,"lon":102.68,"population":0,"timezone":"Asia/Shanghai","country":"China"},{"name":"Dar es Salaam","lat":-6.8,"lon":39.2683,"population":0,"timezone":"Africa/Dar_es_Salaam","country":"Tanzania"},{"name":"Minneapolis","lat":44.9635,"lon":-93.2678,"population":0,"timezone":"America/Chicago","country":"United States"},{"name":"Jaipur","lat":26.9211,"lon":75.81,"population":0,"timezone":"Asia/Kolkata","country":"India"},{"name":"Taiyuan","lat":37.875,"lon":112.5451,"population":0,"timezone":"Asia/Shanghai","country":"China"},{"name":"Frankfurt","lat":50.1,"lon":8.675,"population":0,"timezone":"Europe/Berlin","country":"Germany"},{"name":"Qingdao","lat":36.09,"lon":120.33,"population":0,"timezone":"Asia/Shanghai","country":"China"},{"name":"Surabaya","lat":-7.2492,"lon":112.7508,"population":0,"timezone":"Asia/Jakarta","country":"Indonesia"},{"name":"Lisbon","lat":38.7227,"lon":-9.1449,"population":0,"timezone":"Europe/Lisbon","country":"Portugal"},{"name":"Tampa","lat":27.9937,"lon":-82.4454,"population":0,"timezone":"America/New_York","country":"United States"},{"name":"Jinan","lat":36.675,"lon":116.995,"population":0,"timezone":"Asia/Shanghai","country":"China"},{"name":"Fukuoka","lat":33.595,"lon":130.41,"population":0,"timezone":"Asia/Tokyo","country":"Japan"},{"name":"Campinas","lat":-22.9,"lon":-47.1,"population":0,"timezone":"America/Sao_Paulo","country":"Brazil"},{"name":"Denver","lat":39.7621,"lon":-104.8759,"population":0,"timezone":"America/Denver","country":"United States"},{"name":"Kaohsiung","lat":22.6333,"lon":120.2666,"population":0,"timezone":"Asia/Taipei","country":"Taiwan"},{"name":"Quezon City","lat":14.6504,"lon":121.03,"population":0,"timezone":"Asia/Manila","country":"Philippines"},{"name":"Katowice","lat":50.2604,"lon":19.02,"population":0,"timezone":"Europe/Warsaw","country":"Poland"},{"name":"Aleppo","lat":36.23,"lon":37.17,"population":0,"timezone":"Asia/Damascus","country":"Syria"},{"name":"Durban","lat":-29.865,"lon":30.98,"population":0,"timezone":"Africa/Johannesburg","country":"South Africa"},{"name":"Kiev","lat":50.4334,"lon":30.5166,"population":0,"timezone":"Europe/Kiev","country":"Ukraine"},{"name":"Lucknow","lat":26.855,"lon":80.915,"population":0,"timezone":"Asia/Kolkata","country":"India"},{"name":"El Giza","lat":30.01,"lon":31.19,"population":0,"timezone":"Africa/Cairo","country":"Egypt"},{"name":"Zhengzhou","lat":34.755,"lon":113.6651,"population":0,"timezone":"Asia/Shanghai","country":"China"},{"name":"Taichung","lat":24.1521,"lon":120.6817,"population":0,"timezone":"Asia/Taipei","country":"Taiwan"},{"name":"Brooklyn","lat":40.6501,"lon":-73.9496,"population":0,"timezone":"America/New_York","country":"United States"},{"name":"Ibadan","lat":7.38,"lon":3.93,"population":0,"timezone":"Africa/Lagos","country":"Nigeria"},{"name":"Faisalabad","lat":31.41,"lon":73.11,"population":0,"timezone":"Asia/Karachi","country":"Pakistan"},{"name":"Fuzhou","lat":26.08,"lon":119.3,"population":0,"timezone":"Asia/Shanghai","country":"China"},{"name":"Dakar","lat":14.7158,"lon":-17.4731,"population":0,"timezone":"Africa/Dakar","country":"Senegal"},{"name":"Changsha","lat":28.2,"lon":112.97,"population":0,"timezone":"Asia/Shanghai","country":"China"},{"name":"İzmir","lat":38.4361,"lon":27.1518,"population":0,"timezone":"Europe/Istanbul","country":"Turkey"},{"name":"Xiangtan","lat":27.8504,"lon":112.9,"population":0,"timezone":"Asia/Shanghai","country":"China"},{"name":"Lanzhou","lat":36.056,"lon":103.792,"population":0,"timezone":"Asia/Shanghai","country":"China"},{"name":"Incheon","lat":37.4761,"lon":126.6422,"population":0,"timezone":"Asia/Seoul","country":"\"Korea"},{"name":"Sapporo","lat":43.075,"lon":141.34,"population":0,"timezone":"Asia/Tokyo","country":"Japan"},{"name":"Xiamen","lat":24.45,"lon":118.08,"population":0,"timezone":"Asia/Shanghai","country":"China"},{"name":"Guayaquil","lat":-2.22,"lon":-79.92,"population":0,"timezone":"America/Guayaquil","country":"Ecuador"},{"name":"George Town","lat":5.4136,"lon":100.3294,"population":0,"timezone":"Asia/Kuala_Lumpur","country":"Malaysia"},{"name":"Mashhad","lat":36.27,"lon":59.57,"population":0,"timezone":"Asia/Tehran","country":"Iran"},{"name":"Damascus","lat":33.5,"lon":36.3,"population":0,"timezone":"Asia/Damascus","country":"Syria"},{"name":"Daegu","lat":35.8668,"lon":128.607,"population":0,"timezone":"Asia/Seoul","country":"\"Korea"},{"name":"Nagpur","lat":21.17,"lon":79.09,"population":0,"timezone":"Asia/Kolkata","country":"India"},{"name":"Jinxi","lat":40.7503,"lon":120.83,"population":0,"timezone":"Asia/Shanghai","country":"China"},{"name":"Shijianzhuang","lat":38.05,"lon":114.48,"population":0,"timezone":"Asia/Shanghai","country":"China"},{"name":"Tunis","lat":36.8028,"lon":10.1797,"population":0,"timezone":"Africa/Tunis","country":"Tunisia"},{"name":"Vienna","lat":48.2,"lon":16.3666,"population":0,"timezone":"Europe/Vienna","country":"Austria"},{"name":"Jilin","lat":43.85,"lon":126.55,"population":0,"timezone":"Asia/Shanghai","country":"China"},{"name":"Omdurman","lat":15.6167,"lon":32.48,"population":0,"timezone":"Africa/Khartoum","country":"Sudan"},{"name":"Bandung","lat":-6.95,"lon":107.57,"population":0,"timezone":"Asia/Jakarta","country":"Indonesia"},{"name":"Bekasi","lat":-6.2173,"lon":106.9723,"population":0,"timezone":"Asia/Jakarta","country":"Indonesia"},{"name":"Mannheim","lat":49.5004,"lon":8.47,"population":0,"timezone":"Europe/Berlin","country":"Germany"},{"name":"Nanchang","lat":28.68,"lon":115.88,"population":0,"timezone":"Asia/Shanghai","country":"China"},{"name":"Wenzhou","lat":28.02,"lon":120.6501,"population":0,"timezone":"Asia/Shanghai","country":"China"},{"name":"Queens","lat":40.7498,"lon":-73.7976,"population":0,"timezone":"America/New_York","country":"United States"},{"name":"Vancouver","lat":49.2734,"lon":-123.1216,"population":0,"timezone":"America/Vancouver","country":"Canada"},{"name":"Birmingham","lat":52.475,"lon":-1.92,"population":0,"timezone":"Europe/London","country":"United Kingdom"},{"name":"Cali","lat":3.4,"lon":-76.5,"population":0,"timezone":"America/Bogota","country":"Colombia"},{"name":"Naples","lat":40.84,"lon":14.245,"population":0,"timezone":"Europe/Rome","country":"Italy"},{"name":"Sendai","lat":38.2871,"lon":141.0217,"population":0,"timezone":"Asia/Tokyo","country":"Japan"},{"name":"Manchester","lat":53.5004,"lon":-2.248,"population":0,"timezone":"Europe/London","country":"United Kingdom"},{"name":"Puebla","lat":19.05,"lon":-98.2,"population":0,"timezone":"America/Mexico_City","country":"Mexico"},{"name":"Tripoli","lat":32.8925,"lon":13.18,"population":0,"timezone":"Africa/Tripoli","country":"Libya"},{"name":"Tashkent","lat":41.3117,"lon":69.2949,"population":0,"timezone":"Asia/Tashkent","country":"Uzbekistan"},{"name":"Nanchong","lat":30.7804,"lon":106.13,"population":0,"timezone":"Asia/Shanghai","country":"China"},{"name":"Havana","lat":23.132,"lon":-82.3642,"population":0,"timezone":"America/Havana","country":"Cuba"},{"name":"Baltimore","lat":39.3051,"lon":-76.6144,"population":0,"timezone":"America/New_York","country":"United States"},{"name":"Belém","lat":-1.45,"lon":-48.48,"population":0,"timezone":"America/Belem","country":"Brazil"},{"name":"Nanning","lat":22.82,"lon":108.32,"population":0,"timezone":"Asia/Shanghai","country":"China"},{"name":"Patna","lat":25.625,"lon":85.13,"population":0,"timezone":"Asia/Kolkata","country":"India"},{"name":"Santo Domingo","lat":18.4701,"lon":-69.9001,"population":0,"timezone":"America/Santo_Domingo","country":"Dominican Republic"},{"name":"Ürümqi","lat":43.805,"lon":87.575,"population":0,"timezone":"Asia/Urumqi","country":"China"},{"name":"Zaozhuang","lat":34.88,"lon":117.57,"population":0,"timezone":"Asia/Shanghai","country":"China"},{"name":"Baku","lat":40.3953,"lon":49.8622,"population":0,"timezone":"Asia/Baku","country":"Azerbaijan"},{"name":"Accra","lat":5.55,"lon":-0.2167,"population":0,"timezone":"Africa/Accra","country":"Ghana"},{"name":"Yantai","lat":37.5304,"lon":121.4,"population":0,"timezone":"Asia/Shanghai","country":"China"},{"name":"Medan","lat":3.58,"lon":98.65,"population":0,"timezone":"Asia/Jakarta","country":"Indonesia"},{"name":"Santa Cruz","lat":-17.7539,"lon":-63.226,"population":0,"timezone":"America/La_Paz","country":"Bolivia"},{"name":"Xuzhou","lat":34.28,"lon":117.18,"population":0,"timezone":"Asia/Shanghai","country":"China"},{"name":"Riverside","lat":33.9381,"lon":-117.3948,"population":0,"timezone":"America/Los_Angeles","country":"United States"},{"name":"Linyi","lat":35.08,"lon":118.33,"population":0,"timezone":"Asia/Shanghai","country":"China"},{"name":"Saint Louis","lat":38.6358,"lon":-90.2451,"population":0,"timezone":"America/Chicago","country":"United States"},{"name":"Las Vegas","lat":36.2291,"lon":-115.2607,"population":0,"timezone":"America/Los_Angeles","country":"United States"},{"name":"Maracaibo","lat":10.73,"lon":-71.66,"population":0,"timezone":"America/Caracas","country":"Venezuela"},{"name":"Kuwait","lat":29.3697,"lon":47.9783,"population":0,"timezone":"Asia/Kuwait","country":"Kuwait"},{"name":"Ad Damman","lat":26.4282,"lon":50.0997,"population":0,"timezone":"Asia/Riyadh","country":"Saudi Arabia"},{"name":"Portland","lat":45.5372,"lon":-122.65,"population":0,"timezone":"America/Los_Angeles","country":"United States"},{"name":"Haikou","lat":20.05,"lon":110.32,"population":0,"timezone":"Asia/Shanghai","country":"China"},{"name":"Hiroshima","lat":34.3878,"lon":132.4429,"population":0,"timezone":"Asia/Tokyo","country":"Japan"},{"name":"Baotou","lat":40.6522,"lon":109.822,"population":0,"timezone":"Asia/Shanghai","country":"China"},{"name":"Hefei","lat":31.85,"lon":117.28,"population":0,"timezone":"Asia/Shanghai","country":"China"},{"name":"Indore","lat":22.7151,"lon":75.865,"population":0,"timezone":"Asia/Kolkata","country":"India"},{"name":"Goiânia","lat":-16.72,"lon":-49.3,"population":0,"timezone":"America/Sao_Paulo","country":"Brazil"},{"name":"Sanaa","lat":15.3547,"lon":44.2066,"population":0,"timezone":"Asia/Aden","country":"Yemen"},{"name":"San Antonio","lat":29.4722,"lon":-98.5247,"population":0,"timezone":"America/Chicago","country":"United States"},{"name":"Port-au-Prince","lat":18.541,"lon":-72.336,"population":0,"timezone":"America/Port-au-Prince","country":"Haiti"},{"name":"Haiphong","lat":20.83,"lon":106.6801,"population":0,"timezone":"Asia/Bangkok","country":"Vietnam"},{"name":"Suzhou","lat":33.6361,"lon":116.9789,"population":0,"timezone":"Asia/Shanghai","country":"China"},{"name":"Nanyang","lat":33.0004,"lon":112.53,"population":0,"timezone":"Asia/Shanghai","country":"China"},{"name":"Bucharest","lat":44.4334,"lon":26.0999,"population":0,"timezone":"Europe/Bucharest","country":"Romania"},{"name":"Ningbo","lat":29.88,"lon":121.55,"population":0,"timezone":"Asia/Shanghai","country":"China"},{"name":"Douala","lat":4.0604,"lon":9.71,"population":0,"timezone":"Africa/Douala","country":"Cameroon"},{"name":"Tangshan","lat":39.6243,"lon":118.1944,"population":0,"timezone":"Asia/Shanghai","country":"China"},{"name":"Tainan","lat":23,"lon":120.2,"population":0,"timezone":"Asia/Taipei","country":"Taiwan"},{"name":"Datong","lat":40.08,"lon":113.3,"population":0,"timezone":"Asia/Shanghai","country":"China"},{"name":"Asunción","lat":-25.2964,"lon":-57.6415,"population":0,"timezone":"America/Asuncion","country":"Paraguay"},{"name":"Saidu","lat":34.75,"lon":72.35,"population":0,"timezone":"Asia/Karachi","country":"Pakistan"},{"name":"Brisbane","lat":-27.455,"lon":153.0351,"population":0,"timezone":"Australia/Brisbane","country":"Australia"},{"name":"Rawalpindi","lat":33.6,"lon":73.04,"population":0,"timezone":"Asia/Karachi","country":"Pakistan"},{"name":"Sacramento","lat":38.5667,"lon":-121.4683,"population":0,"timezone":"America/Los_Angeles","country":"United States"},{"name":"Beirut","lat":33.872,"lon":35.5097,"population":0,"timezone":"Asia/Beirut","country":"Lebanon"},{"name":"San Jose","lat":37.3018,"lon":-121.8485,"population":0,"timezone":"America/Los_Angeles","country":"United States"},{"name":"Minsk","lat":53.9,"lon":27.5666,"population":0,"timezone":"Europe/Minsk","country":"Belarus"},{"name":"Kyoto","lat":35.03,"lon":135.75,"population":0,"timezone":"Asia/Tokyo","country":"Japan"},{"name":"Barranquilla","lat":10.96,"lon":-74.8,"population":0,"timezone":"America/Bogota","country":"Colombia"},{"name":"Orlando","lat":28.4788,"lon":-81.342,"population":0,"timezone":"America/New_York","country":"United States"},{"name":"Valencia","lat":10.23,"lon":-67.98,"population":0,"timezone":"America/Caracas","country":"Venezuela"},{"name":"Shuyang","lat":34.1299,"lon":118.7734,"population":0,"timezone":"Asia/Shanghai","country":"China"},{"name":"Hamburg","lat":53.55,"lon":10,"population":0,"timezone":"Europe/Berlin","country":"Germany"},{"name":"Vadodara","lat":22.31,"lon":73.18,"population":0,"timezone":"Asia/Kolkata","country":"India"},{"name":"Manaus","lat":-3.1,"lon":-60,"population":0,"timezone":"America/Manaus","country":"Brazil"},{"name":"Shangqiu","lat":34.4504,"lon":115.65,"population":0,"timezone":"Asia/Shanghai","country":"China"},{"name":"Wuxi","lat":31.58,"lon":120.3,"population":0,"timezone":"Asia/Shanghai","country":"China"},{"name":"Palembang","lat":-2.98,"lon":104.75,"population":0,"timezone":"Asia/Jakarta","country":"Indonesia"},{"name":"Brussels","lat":50.8333,"lon":4.3333,"population":0,"timezone":"Europe/Brussels","country":"Belgium"},{"name":"Essen","lat":51.45,"lon":7.0166,"population":0,"timezone":"Europe/Berlin","country":"Germany"},{"name":"Cleveland","lat":41.4767,"lon":-81.6805,"population":0,"timezone":"America/New_York","country":"United States"},{"name":"Bhopal","lat":23.25,"lon":77.41,"population":0,"timezone":"Asia/Kolkata","country":"India"},{"name":"Hohhot","lat":40.82,"lon":111.66,"population":0,"timezone":"Asia/Shanghai","country":"China"},{"name":"Pittsburgh","lat":40.4396,"lon":-79.9763,"population":0,"timezone":"America/New_York","country":"United States"},{"name":"Luoyang","lat":34.68,"lon":112.4701,"population":0,"timezone":"Asia/Shanghai","country":"China"},{"name":"Santos","lat":-23.9537,"lon":-46.3329,"population":0,"timezone":"America/Sao_Paulo","country":"Brazil"},{"name":"Jianmen","lat":30.6501,"lon":113.16,"population":0,"timezone":"Asia/Shanghai","country":"China"},{"name":"Warsaw","lat":52.25,"lon":21,"population":0,"timezone":"Europe/Warsaw","country":"Poland"},{"name":"Rabat","lat":34.0253,"lon":-6.8361,"population":0,"timezone":"Africa/Casablanca","country":"Morocco"},{"name":"Vitória","lat":-20.324,"lon":-40.366,"population":0,"timezone":"America/Sao_Paulo","country":"Brazil"},{"name":"Quito","lat":-0.215,"lon":-78.5001,"population":0,"timezone":"America/Guayaquil","country":"Ecuador"},{"name":"Antananarivo","lat":-18.9166,"lon":47.5166,"population":0,"timezone":"Indian/Antananarivo","country":"Madagascar"},{"name":"Coimbatore","lat":11,"lon":76.95,"population":0,"timezone":"Asia/Kolkata","country":"India"},{"name":"Daqing","lat":46.58,"lon":125,"population":0,"timezone":"Asia/Shanghai","country":"China"},{"name":"Luan","lat":31.7503,"lon":116.48,"population":0,"timezone":"Asia/Shanghai","country":"China"},{"name":"Wanzhou","lat":30.82,"lon":108.4,"population":0,"timezone":"Asia/Shanghai","country":"China"},{"name":"Budapest","lat":47.5,"lon":19.0833,"population":0,"timezone":"Europe/Budapest","country":"Hungary"},{"name":"Turin","lat":45.0704,"lon":7.67,"population":0,"timezone":"Europe/Rome","country":"Italy"},{"name":"Suzhou","lat":31.3005,"lon":120.62,"population":0,"timezone":"Asia/Shanghai","country":"China"},{"name":"Ludhiana","lat":30.9278,"lon":75.8723,"population":0,"timezone":"Asia/Kolkata","country":"India"},{"name":"Cincinnati","lat":39.1412,"lon":-84.5059,"population":0,"timezone":"America/New_York","country":"United States"},{"name":"Kumasi","lat":6.69,"lon":-1.63,"population":0,"timezone":"Africa/Accra","country":"Ghana"},{"name":"Manhattan","lat":40.7834,"lon":-73.9662,"population":0,"timezone":"America/New_York","country":"United States"},{"name":"Qiqihar","lat":47.345,"lon":123.99,"population":0,"timezone":"Asia/Shanghai","country":"China"},{"name":"Anshan","lat":41.115,"lon":122.94,"population":0,"timezone":"Asia/Shanghai","country":"China"},{"name":"Austin","lat":30.3006,"lon":-97.7517,"population":0,"timezone":"America/Chicago","country":"United States"},{"name":"Zhongli","lat":24.965,"lon":121.2168,"population":0,"timezone":"Asia/Taipei","country":"Taiwan"},{"name":"Handan","lat":36.58,"lon":114.48,"population":0,"timezone":"Asia/Shanghai","country":"China"},{"name":"Taian","lat":36.2,"lon":117.1201,"population":0,"timezone":"Asia/Shanghai","country":"China"},{"name":"Isfahan","lat":32.7,"lon":51.7,"population":0,"timezone":"Asia/Tehran","country":"Iran"},{"name":"Kansas City","lat":39.1239,"lon":-94.5541,"population":0,"timezone":"America/Chicago","country":"United States"},{"name":"Yaounde","lat":3.8667,"lon":11.5167,"population":0,"timezone":"Africa/Douala","country":"Cameroon"},{"name":"Shantou","lat":23.37,"lon":116.67,"population":0,"timezone":"Asia/Shanghai","country":"China"},{"name":"Agra","lat":27.1704,"lon":78.015,"population":0,"timezone":"Asia/Kolkata","country":"India"},{"name":"La Paz","lat":-16.498,"lon":-68.15,"population":0,"timezone":"America/La_Paz","country":"Bolivia"},{"name":"Zhanjiang","lat":21.2,"lon":110.38,"population":0,"timezone":"Asia/Shanghai","country":"China"},{"name":"Kalyan","lat":19.2502,"lon":73.1602,"population":0,"timezone":"Asia/Kolkata","country":"India"},{"name":"Abuja","lat":9.0833,"lon":7.5333,"population":0,"timezone":"Africa/Lagos","country":"Nigeria"},{"name":"Harare","lat":-17.8178,"lon":31.0447,"population":0,"timezone":"Africa/Harare","country":"Zimbabwe"},{"name":"Indianapolis","lat":39.7771,"lon":-86.1458,"population":0,"timezone":"America/Indiana/Indianapolis","country":"United States"},{"name":"Xiantao","lat":30.3704,"lon":113.44,"population":0,"timezone":"Asia/Shanghai","country":"China"},{"name":"Tijuana","lat":32.5,"lon":-117.08,"population":0,"timezone":"America/Tijuana","country":"Mexico"},{"name":"Khulna","lat":22.84,"lon":89.56,"population":0,"timezone":"Asia/Dhaka","country":"Bangladesh"},{"name":"Weifang","lat":36.7204,"lon":119.1001,"population":0,"timezone":"Asia/Shanghai","country":"China"},{"name":"Santiago","lat":19.5,"lon":-70.67,"population":0,"timezone":"America/Santo_Domingo","country":"Dominican Republic"},{"name":"Xinyang","lat":32.1304,"lon":114.07,"population":0,"timezone":"Asia/Shanghai","country":"China"},{"name":"Luzhou","lat":28.88,"lon":105.38,"population":0,"timezone":"Asia/Shanghai","country":"China"},{"name":"Perth","lat":-31.955,"lon":115.84,"population":0,"timezone":"Australia/Perth","country":"Australia"},{"name":"Toluca","lat":19.3304,"lon":-99.67,"population":0,"timezone":"America/Mexico_City","country":"Mexico"},{"name":"Leeds","lat":53.83,"lon":-1.58,"population":0,"timezone":"Europe/London","country":"United Kingdom"},{"name":"Vishakhapatnam","lat":17.73,"lon":83.305,"population":0,"timezone":"Asia/Kolkata","country":"India"},{"name":"Kōbe","lat":34.68,"lon":135.17,"population":0,"timezone":"Asia/Tokyo","country":"Japan"},{"name":"Columbus","lat":39.986,"lon":-82.9852,"population":0,"timezone":"America/New_York","country":"United States"},{"name":"Multan","lat":30.2,"lon":71.455,"population":0,"timezone":"Asia/Karachi","country":"Pakistan"},{"name":"Kochi","lat":10.015,"lon":76.2239,"population":0,"timezone":"Asia/Kolkata","country":"India"},{"name":"Gujranwala","lat":32.1604,"lon":74.185,"population":0,"timezone":"Asia/Karachi","country":"Pakistan"},{"name":"Montevideo","lat":-34.858,"lon":-56.1711,"population":0,"timezone":"America/Montevideo","country":"Uruguay"},{"name":"Niterói","lat":-22.9,"lon":-43.1,"population":0,"timezone":"America/Sao_Paulo","country":"Brazil"},{"name":"Ganzhou","lat":25.92,"lon":114.95,"population":0,"timezone":"Asia/Shanghai","country":"China"},{"name":"Florence","lat":43.78,"lon":11.25,"population":0,"timezone":"Europe/Rome","country":"Italy"},{"name":"Liuzhou","lat":24.28,"lon":109.25,"population":0,"timezone":"Asia/Shanghai","country":"China"},{"name":"Bamako","lat":12.65,"lon":-8,"population":0,"timezone":"Africa/Bamako","country":"Mali"},{"name":"Conakry","lat":9.5315,"lon":-13.6802,"population":0,"timezone":"Africa/Conakry","country":"Guinea"},{"name":"Bursa","lat":40.2,"lon":29.07,"population":0,"timezone":"Europe/Istanbul","country":"Turkey"},{"name":"León","lat":21.15,"lon":-101.7,"population":0,"timezone":"America/Mexico_City","country":"Mexico"},{"name":"Virginia Beach","lat":36.7335,"lon":-76.0435,"population":0,"timezone":"America/New_York","country":"United States"},{"name":"Nasik","lat":20.0004,"lon":73.78,"population":0,"timezone":"Asia/Kolkata","country":"India"},{"name":"Fushun","lat":41.8654,"lon":123.87,"population":0,"timezone":"Asia/Shanghai","country":"China"},{"name":"Changde","lat":29.03,"lon":111.68,"population":0,"timezone":"Asia/Shanghai","country":"China"},{"name":"Daejeon","lat":36.3355,"lon":127.425,"population":0,"timezone":"Asia/Seoul","country":"\"Korea"},{"name":"Charlotte","lat":35.2079,"lon":-80.8303,"population":0,"timezone":"America/New_York","country":"United States"},{"name":"Neijiang","lat":29.5804,"lon":105.05,"population":0,"timezone":"Asia/Shanghai","country":"China"},{"name":"Phnom Penh","lat":11.55,"lon":104.9166,"population":0,"timezone":"Asia/Phnom_Penh","country":"Cambodia"},{"name":"Quanzhou","lat":24.9,"lon":118.58,"population":0,"timezone":"Asia/Shanghai","country":"China"},{"name":"Kharkiv","lat":50,"lon":36.25,"population":0,"timezone":"Europe/Kiev","country":"Ukraine"},{"name":"Hyderabad","lat":25.38,"lon":68.375,"population":0,"timezone":"Asia/Karachi","country":"Pakistan"},{"name":"Bronx","lat":40.8501,"lon":-73.8662,"population":0,"timezone":"America/New_York","country":"United States"},{"name":"Lomé","lat":6.1319,"lon":1.2228,"population":0,"timezone":"Africa/Lome","country":"Togo"},{"name":"Córdoba","lat":-31.4,"lon":-64.1823,"population":0,"timezone":"America/Argentina/Cordoba","country":"Argentina"},{"name":"Huainan","lat":32.63,"lon":116.98,"population":0,"timezone":"Asia/Shanghai","country":"China"},{"name":"Doha","lat":25.2866,"lon":51.533,"population":0,"timezone":"Asia/Qatar","country":"Qatar"},{"name":"Kuala Lumpur","lat":3.1667,"lon":101.7,"population":0,"timezone":"Asia/Kuala_Lumpur","country":"Malaysia"},{"name":"Maputo","lat":-25.9553,"lon":32.5892,"population":0,"timezone":"Africa/Maputo","country":"Mozambique"},{"name":"Kaduna","lat":10.52,"lon":7.44,"population":0,"timezone":"Africa/Lagos","country":"Nigeria"},{"name":"Gwangju","lat":35.171,"lon":126.9104,"population":0,"timezone":"Asia/Seoul","country":"\"Korea"},{"name":"Kawasaki","lat":35.53,"lon":139.705,"population":0,"timezone":"Asia/Tokyo","country":"Japan"},{"name":"San Salvador","lat":13.71,"lon":-89.203,"population":0,"timezone":"America/El_Salvador","country":"El Salvador"},{"name":"Suining","lat":30.5333,"lon":105.5333,"population":0,"timezone":"Asia/Shanghai","country":"China"},{"name":"Lyon","lat":45.77,"lon":4.83,"population":0,"timezone":"Europe/Paris","country":"France"},{"name":"Karaj","lat":35.8004,"lon":50.97,"population":0,"timezone":"Asia/Tehran","country":"Iran"},{"name":"Kampala","lat":0.3167,"lon":32.5833,"population":0,"timezone":"Africa/Kampala","country":"Uganda"},{"name":"Tabriz","lat":38.0863,"lon":46.3012,"population":0,"timezone":"Asia/Tehran","country":"Iran"},{"name":"The Hague","lat":52.08,"lon":4.27,"population":0,"timezone":"Europe/Amsterdam","country":"Netherlands"},{"name":"Davao","lat":7.11,"lon":125.63,"population":0,"timezone":"Asia/Manila","country":"Philippines"},{"name":"Marseille","lat":43.29,"lon":5.375,"population":0,"timezone":"Europe/Paris","country":"France"},{"name":"Meerut","lat":29.0004,"lon":77.7,"population":0,"timezone":"Asia/Kolkata","country":"India"},{"name":"Mianyang","lat":31.47,"lon":104.77,"population":0,"timezone":"Asia/Shanghai","country":"China"},{"name":"Semarang","lat":-6.9666,"lon":110.42,"population":0,"timezone":"Asia/Jakarta","country":"Indonesia"},{"name":"Faridabad","lat":28.4333,"lon":77.3167,"population":0,"timezone":"Asia/Kolkata","country":"India"},{"name":"Novosibirsk","lat":55.03,"lon":82.96,"population":0,"timezone":"Asia/Novosibirsk","country":"Russia"},{"name":"Makkah","lat":21.43,"lon":39.82,"population":0,"timezone":"Asia/Riyadh","country":"Saudi Arabia"},{"name":"Dubai","lat":25.23,"lon":55.28,"population":0,"timezone":"Asia/Dubai","country":"United Arab Emirates"},{"name":"Milwaukee","lat":43.064,"lon":-87.9669,"population":0,"timezone":"America/Chicago","country":"United States"},{"name":"Auckland","lat":-36.8481,"lon":174.763,"population":0,"timezone":"Pacific/Auckland","country":"New Zealand"},{"name":"Maanshan","lat":31.7304,"lon":118.48,"population":0,"timezone":"Asia/Shanghai","country":"China"},{"name":"Brazzaville","lat":-4.2592,"lon":15.2847,"population":0,"timezone":"Africa/Brazzaville","country":"Congo (Brazzaville)"},{"name":"Lubumbashi","lat":-11.68,"lon":27.48,"population":0,"timezone":"Africa/Lubumbashi","country":"Congo (Kinshasa)"},{"name":"Yiyang","lat":28.6004,"lon":112.33,"population":0,"timezone":"Asia/Shanghai","country":"China"},{"name":"Varanasi","lat":25.33,"lon":83,"population":0,"timezone":"Asia/Kolkata","country":"India"},{"name":"Ciudad Juárez","lat":31.6904,"lon":-106.49,"population":0,"timezone":"America/Ojinaga","country":"Mexico"},{"name":"Ghaziabad","lat":28.6604,"lon":77.4084,"population":0,"timezone":"Asia/Kolkata","country":"India"},{"name":"Pretoria","lat":-25.7069,"lon":28.2294,"population":0,"timezone":"Africa/Johannesburg","country":"South Africa"},{"name":"Heze","lat":35.23,"lon":115.45,"population":0,"timezone":"Asia/Shanghai","country":"China"},{"name":"Porto","lat":41.15,"lon":-8.62,"population":0,"timezone":"Europe/Lisbon","country":"Portugal"},{"name":"Lusaka","lat":-15.4166,"lon":28.2833,"population":0,"timezone":"Africa/Lusaka","country":"Zambia"},{"name":"Asansol","lat":23.6833,"lon":86.9833,"population":0,"timezone":"Asia/Kolkata","country":"India"},{"name":"Changzhou","lat":31.78,"lon":119.97,"population":0,"timezone":"Asia/Shanghai","country":"China"},{"name":"Mosul","lat":36.345,"lon":43.145,"population":0,"timezone":"Asia/Baghdad","country":"Iraq"},{"name":"Yekaterinburg","lat":56.85,"lon":60.6,"population":0,"timezone":"Asia/Yekaterinburg","country":"Russia"},{"name":"Peshawar","lat":34.005,"lon":71.535,"population":0,"timezone":"Asia/Karachi","country":"Pakistan"},{"name":"Mandalay","lat":21.97,"lon":96.085,"population":0,"timezone":"Asia/Yangon","country":"Burma"},{"name":"Jamshedpur","lat":22.7875,"lon":86.1975,"population":0,"timezone":"Asia/Kolkata","country":"India"},{"name":"Mbuji-Mayi","lat":-6.15,"lon":23.6,"population":0,"timezone":"Africa/Lubumbashi","country":"Congo (Kinshasa)"},{"name":"Madurai","lat":9.92,"lon":78.12,"population":0,"timezone":"Asia/Kolkata","country":"India"},{"name":"Adana","lat":36.995,"lon":35.32,"population":0,"timezone":"Europe/Istanbul","country":"Turkey"},{"name":"Sheffield","lat":53.3667,"lon":-1.5,"population":0,"timezone":"Europe/London","country":"United Kingdom"},{"name":"Jabalpur","lat":23.1751,"lon":79.9551,"population":0,"timezone":"Asia/Kolkata","country":"India"},{"name":"San José","lat":9.935,"lon":-84.0841,"population":0,"timezone":"America/Costa_Rica","country":"Costa Rica"},{"name":"Panama City","lat":8.968,"lon":-79.533,"population":0,"timezone":"America/Panama","country":"Panama"},{"name":"Nizhny Novgorod","lat":56.333,"lon":44.0001,"population":0,"timezone":"Europe/Moscow","country":"Russia"},{"name":"Chifeng","lat":42.27,"lon":118.95,"population":0,"timezone":"Asia/Shanghai","country":"China"},{"name":"Duisburg","lat":51.43,"lon":6.75,"population":0,"timezone":"Europe/Berlin","country":"Germany"},{"name":"Munich","lat":48.1299,"lon":11.575,"population":0,"timezone":"Europe/Berlin","country":"Germany"},{"name":"Stockholm","lat":59.3508,"lon":18.0973,"population":0,"timezone":"Europe/Stockholm","country":"Sweden"},{"name":"Huaiyin","lat":33.58,"lon":119.03,"population":0,"timezone":"Asia/Shanghai","country":"China"},{"name":"Ujungpandang","lat":-5.14,"lon":119.432,"population":0,"timezone":"Asia/Makassar","country":"Indonesia"},{"name":"Rajkot","lat":22.31,"lon":70.8,"population":0,"timezone":"Asia/Kolkata","country":"India"},{"name":"Dhanbad","lat":23.8004,"lon":86.42,"population":0,"timezone":"Asia/Kolkata","country":"India"},{"name":"Mudangiang","lat":44.575,"lon":129.59,"population":0,"timezone":"Asia/Shanghai","country":"China"},{"name":"Geneva","lat":46.21,"lon":6.14,"population":0,"timezone":"Europe/Zurich","country":"Switzerland"},{"name":"Shiraz","lat":29.63,"lon":52.57,"population":0,"timezone":"Asia/Tehran","country":"Iran"},{"name":"Huzhou","lat":30.8704,"lon":120.1,"population":0,"timezone":"Asia/Shanghai","country":"China"},{"name":"Tianshui","lat":34.6,"lon":105.92,"population":0,"timezone":"Asia/Shanghai","country":"China"},{"name":"Lupanshui","lat":26.5944,"lon":104.8333,"population":0,"timezone":"Asia/Shanghai","country":"China"},{"name":"Düsseldorf","lat":51.2204,"lon":6.78,"population":0,"timezone":"Europe/Berlin","country":"Germany"},{"name":"Maoming","lat":21.9204,"lon":110.87,"population":0,"timezone":"Asia/Shanghai","country":"China"},{"name":"Seville","lat":37.405,"lon":-5.98,"population":0,"timezone":"Europe/Madrid","country":"Spain"},{"name":"Amritsar","lat":31.64,"lon":74.87,"population":0,"timezone":"Asia/Kolkata","country":"India"},{"name":"Vila Velha","lat":-20.3676,"lon":-40.318,"population":0,"timezone":"America/Sao_Paulo","country":"Brazil"},{"name":"Vila Velha","lat":3.2167,"lon":-51.2167,"population":0,"timezone":"America/Belem","country":"Brazil"},{"name":"Almaty","lat":43.325,"lon":76.915,"population":0,"timezone":"Asia/Almaty","country":"Kazakhstan"},{"name":"Providence","lat":41.8229,"lon":-71.4186,"population":0,"timezone":"America/New_York","country":"United States"},{"name":"Warangal","lat":18.01,"lon":79.58,"population":0,"timezone":"Asia/Kolkata","country":"India"},{"name":"Rosario","lat":-32.9511,"lon":-60.6663,"population":0,"timezone":"America/Argentina/Cordoba","country":"Argentina"},{"name":"Allahabad","lat":25.455,"lon":81.84,"population":0,"timezone":"Asia/Kolkata","country":"India"},{"name":"Benin City","lat":6.3405,"lon":5.62,"population":0,"timezone":"Africa/Lagos","country":"Nigeria"},{"name":"Maceió","lat":-9.62,"lon":-35.73,"population":0,"timezone":"America/Maceio","country":"Brazil"},{"name":"Jining","lat":35.4004,"lon":116.55,"population":0,"timezone":"Asia/Shanghai","country":"China"},{"name":"Sofia","lat":42.6833,"lon":23.3167,"population":0,"timezone":"Europe/Sofia","country":"Bulgaria"},{"name":"Abbottabad","lat":34.1495,"lon":73.1995,"population":0,"timezone":"Asia/Karachi","country":"Pakistan"},{"name":"Banghazi","lat":32.1167,"lon":20.0667,"population":0,"timezone":"Africa/Tripoli","country":"Libya"},{"name":"Cilacap","lat":-7.7188,"lon":109.0154,"population":0,"timezone":"Asia/Jakarta","country":"Indonesia"},{"name":"Prague","lat":50.0833,"lon":14.466,"population":0,"timezone":"Europe/Prague","country":"Czechia"},{"name":"Glasgow","lat":55.8744,"lon":-4.2507,"population":0,"timezone":"Europe/London","country":"United Kingdom"},{"name":"Leshan","lat":29.5671,"lon":103.7333,"population":0,"timezone":"Asia/Shanghai","country":"China"},{"name":"Jacksonville","lat":30.3322,"lon":-81.6749,"population":0,"timezone":"America/New_York","country":"United States"},{"name":"Ouagadougou","lat":12.3703,"lon":-1.5247,"population":0,"timezone":"Africa/Ouagadougou","country":"Burkina Faso"},{"name":"Adelaide","lat":-34.935,"lon":138.6,"population":0,"timezone":"Australia/Adelaide","country":"Australia"},{"name":"Ottawa","lat":45.4167,"lon":-75.7,"population":0,"timezone":"America/Toronto","country":"Canada"},{"name":"Shangrao","lat":28.4704,"lon":117.97,"population":0,"timezone":"Asia/Shanghai","country":"China"},{"name":"Torreón","lat":25.5701,"lon":-103.42,"population":0,"timezone":"America/Monterrey","country":"Mexico"},{"name":"Srinagar","lat":34.1,"lon":74.815,"population":0,"timezone":"Asia/Kolkata","country":"India"},{"name":"Samara","lat":53.195,"lon":50.1513,"population":0,"timezone":"Europe/Samara","country":"Russia"},{"name":"Vijayawada","lat":16.52,"lon":80.63,"population":0,"timezone":"Asia/Kolkata","country":"India"},{"name":"Omsk","lat":54.99,"lon":73.4,"population":0,"timezone":"Asia/Omsk","country":"Russia"},{"name":"Newcastle","lat":-32.8453,"lon":151.815,"population":0,"timezone":"Australia/Sydney","country":"Australia"},{"name":"Yulin","lat":22.63,"lon":110.15,"population":0,"timezone":"Asia/Shanghai","country":"China"},{"name":"Nampo","lat":38.7669,"lon":125.4524,"population":0,"timezone":"Asia/Pyongyang","country":"\"Korea"},{"name":"Xianyang","lat":34.3456,"lon":108.7147,"population":0,"timezone":"Asia/Shanghai","country":"China"},{"name":"Cagayan de Oro","lat":8.4508,"lon":124.6853,"population":0,"timezone":"Asia/Manila","country":"Philippines"},{"name":"Can Tho","lat":10.05,"lon":105.77,"population":0,"timezone":"Asia/Ho_Chi_Minh","country":"Vietnam"},{"name":"Barquisimeto","lat":10.05,"lon":-69.3,"population":0,"timezone":"America/Caracas","country":"Venezuela"},{"name":"Kazan","lat":55.7499,"lon":49.1263,"population":0,"timezone":"Europe/Moscow","country":"Russia"},{"name":"Helsinki","lat":60.1756,"lon":24.9341,"population":0,"timezone":"Europe/Helsinki","country":"Finland"},{"name":"Aurangabad","lat":19.8957,"lon":75.3203,"population":0,"timezone":"Asia/Kolkata","country":"India"},{"name":"Calgary","lat":51.083,"lon":-114.08,"population":0,"timezone":"America/Edmonton","country":"Canada"},{"name":"Nezahualcoyotl","lat":19.41,"lon":-99.03,"population":0,"timezone":"America/Mexico_City","country":"Mexico"},{"name":"Zürich","lat":47.38,"lon":8.55,"population":0,"timezone":"Europe/Zurich","country":"Switzerland"},{"name":"Baoding","lat":38.8704,"lon":115.48,"population":0,"timezone":"Asia/Shanghai","country":"China"},{"name":"Zigong","lat":29.4,"lon":104.78,"population":0,"timezone":"Asia/Shanghai","country":"China"},{"name":"Sharjah","lat":25.3714,"lon":55.4065,"population":0,"timezone":"Asia/Dubai","country":"United Arab Emirates"},{"name":"Yerevan","lat":40.1812,"lon":44.5136,"population":0,"timezone":"Asia/Yerevan","country":"Armenia"},{"name":"Mogadishu","lat":2.0667,"lon":45.3667,"population":0,"timezone":"Africa/Mogadishu","country":"Somalia"},{"name":"Huambo","lat":-12.75,"lon":15.76,"population":0,"timezone":"Africa/Luanda","country":"Angola"},{"name":"Ankang","lat":32.68,"lon":109.02,"population":0,"timezone":"Asia/Shanghai","country":"China"},{"name":"Tbilisi","lat":41.725,"lon":44.7908,"population":0,"timezone":"Asia/Tbilisi","country":"Georgia"},{"name":"Ikare","lat":7.5304,"lon":5.76,"population":0,"timezone":"Africa/Lagos","country":"Nigeria"},{"name":"Belgrade","lat":44.8186,"lon":20.468,"population":0,"timezone":"Europe/Belgrade","country":"Serbia"},{"name":"Salt Lake City","lat":40.7774,"lon":-111.9301,"population":0,"timezone":"America/Denver","country":"United States"},{"name":"Bhilai","lat":21.2167,"lon":81.4333,"population":0,"timezone":"Asia/Kolkata","country":"India"},{"name":"Jinhua","lat":29.12,"lon":119.65,"population":0,"timezone":"Asia/Shanghai","country":"China"},{"name":"Chelyabinsk","lat":55.155,"lon":61.4387,"population":0,"timezone":"Asia/Yekaterinburg","country":"Russia"},{"name":"Natal","lat":-5.78,"lon":-35.24,"population":0,"timezone":"America/Fortaleza","country":"Brazil"},{"name":"Dushanbe","lat":38.56,"lon":68.7739,"population":0,"timezone":"Asia/Dushanbe","country":"Tajikistan"},{"name":"København","lat":55.6786,"lon":12.5635,"population":0,"timezone":"Europe/Copenhagen","country":"Denmark"},{"name":"Changwon","lat":35.2191,"lon":128.5836,"population":0,"timezone":"Asia/Seoul","country":"\"Korea"},{"name":"Zhuzhou","lat":27.83,"lon":113.15,"population":0,"timezone":"Asia/Shanghai","country":"China"},{"name":"Suwon","lat":37.2578,"lon":127.0109,"population":0,"timezone":"Asia/Seoul","country":"\"Korea"},{"name":"Nashville","lat":36.1714,"lon":-86.7844,"population":0,"timezone":"America/Chicago","country":"United States"},{"name":"Vereeniging","lat":-26.6496,"lon":27.96,"population":0,"timezone":"Africa/Johannesburg","country":"South Africa"},{"name":"Xiangfan","lat":32.02,"lon":112.13,"population":0,"timezone":"Asia/Shanghai","country":"China"},{"name":"Memphis","lat":35.1047,"lon":-89.9773,"population":0,"timezone":"America/Chicago","country":"United States"},{"name":"Ulsan","lat":35.5467,"lon":129.317,"population":0,"timezone":"Asia/Seoul","country":"\"Korea"},{"name":"Zhucheng","lat":35.99,"lon":119.3801,"population":0,"timezone":"Asia/Shanghai","country":"China"},{"name":"Amman","lat":31.95,"lon":35.9333,"population":0,"timezone":"Asia/Amman","country":"Jordan"},{"name":"Richmond","lat":37.5295,"lon":-77.4756,"population":0,"timezone":"America/New_York","country":"United States"},{"name":"Dublin","lat":53.3331,"lon":-6.2489,"population":0,"timezone":"Europe/Dublin","country":"Ireland"},{"name":"Edmonton","lat":53.55,"lon":-113.5,"population":0,"timezone":"America/Edmonton","country":"Canada"},{"name":"Sholapur","lat":17.6704,"lon":75.9,"population":0,"timezone":"Asia/Kolkata","country":"India"},{"name":"Rostov","lat":47.2346,"lon":39.7127,"population":0,"timezone":"Europe/Moscow","country":"Russia"},{"name":"Dnipro","lat":48.48,"lon":35,"population":0,"timezone":"Europe/Kiev","country":"Ukraine"},{"name":"Xining","lat":36.62,"lon":101.77,"population":0,"timezone":"Asia/Shanghai","country":"China"},{"name":"Zhangjiakou","lat":40.83,"lon":114.93,"population":0,"timezone":"Asia/Shanghai","country":"China"},{"name":"Gaziantep","lat":37.075,"lon":37.385,"population":0,"timezone":"Europe/Istanbul","country":"Turkey"},{"name":"Lille","lat":50.65,"lon":3.08,"population":0,"timezone":"Europe/Paris","country":"France"},{"name":"Ranchi","lat":23.37,"lon":85.33,"population":0,"timezone":"Asia/Kolkata","country":"India"},{"name":"Monrovia","lat":6.3106,"lon":-10.8048,"population":0,"timezone":"Africa/Monrovia","country":"Liberia"},{"name":"São Luís","lat":-2.516,"lon":-44.266,"population":0,"timezone":"America/Fortaleza","country":"Brazil"},{"name":"Amsterdam","lat":52.35,"lon":4.9166,"population":0,"timezone":"Europe/Amsterdam","country":"Netherlands"},{"name":"Jerusalem","lat":31.7784,"lon":35.2066,"population":0,"timezone":"Asia/Jerusalem","country":"Israel"},{"name":"New Orleans","lat":30.0687,"lon":-89.9288,"population":0,"timezone":"America/Chicago","country":"United States"},{"name":"Guatemala","lat":14.6211,"lon":-90.527,"population":0,"timezone":"America/Guatemala","country":"Guatemala"},{"name":"Florianópolis","lat":-27.58,"lon":-48.52,"population":0,"timezone":"America/Sao_Paulo","country":"Brazil"},{"name":"Zhuhai","lat":22.2769,"lon":113.5678,"population":0,"timezone":"Asia/Shanghai","country":"China"},{"name":"Port Elizabeth","lat":-33.97,"lon":25.6,"population":0,"timezone":"Africa/Johannesburg","country":"South Africa"},{"name":"Port Harcourt","lat":4.81,"lon":7.01,"population":0,"timezone":"Africa/Lagos","country":"Nigeria"},{"name":"Jiamusi","lat":46.83,"lon":130.35,"population":0,"timezone":"Asia/Shanghai","country":"China"},{"name":"Raleigh","lat":35.8323,"lon":-78.6439,"population":0,"timezone":"America/New_York","country":"United States"},{"name":"Ufa","lat":54.79,"lon":56.04,"population":0,"timezone":"Asia/Yekaterinburg","country":"Russia"},{"name":"Hengyang","lat":26.88,"lon":112.59,"population":0,"timezone":"Asia/Shanghai","country":"China"},{"name":"Benxi","lat":41.3304,"lon":123.75,"population":0,"timezone":"Asia/Shanghai","country":"China"},{"name":"Louisville","lat":38.1662,"lon":-85.6488,"population":0,"timezone":"America/Kentucky/Louisville","country":"United States"},{"name":"Haifa","lat":32.8204,"lon":34.98,"population":0,"timezone":"Asia/Jerusalem","country":"Israel"},{"name":"Medina","lat":24.5,"lon":39.58,"population":0,"timezone":"Asia/Riyadh","country":"Saudi Arabia"},{"name":"Bucaramanga","lat":7.1301,"lon":-73.1259,"population":0,"timezone":"America/Bogota","country":"Colombia"},{"name":"Maracay","lat":10.2469,"lon":-67.5958,"population":0,"timezone":"America/Caracas","country":"Venezuela"},{"name":"Rotterdam","lat":51.92,"lon":4.48,"population":0,"timezone":"Europe/Amsterdam","country":"Netherlands"},{"name":"Hims","lat":34.73,"lon":36.72,"population":0,"timezone":"Asia/Damascus","country":"Syria"},{"name":"Cologne","lat":50.93,"lon":6.95,"population":0,"timezone":"Europe/Berlin","country":"Germany"},{"name":"Qinhuangdao","lat":39.9304,"lon":119.62,"population":0,"timezone":"Asia/Shanghai","country":"China"},{"name":"Fez","lat":34.0546,"lon":-5.0004,"population":0,"timezone":"Africa/Casablanca","country":"Morocco"},{"name":"Aden","lat":12.7797,"lon":45.0095,"population":0,"timezone":"Asia/Aden","country":"Yemen"},{"name":"Da Nang","lat":16.06,"lon":108.25,"population":0,"timezone":"Asia/Ho_Chi_Minh","country":"Vietnam"},{"name":"Cochabamba","lat":-17.41,"lon":-66.17,"population":0,"timezone":"America/La_Paz","country":"Bolivia"},{"name":"Yongzhou","lat":26.2304,"lon":111.62,"population":0,"timezone":"Asia/Shanghai","country":"China"},{"name":"Baoshan","lat":25.12,"lon":99.15,"population":0,"timezone":"Asia/Shanghai","country":"China"},{"name":"Kitakyūshū","lat":33.8704,"lon":130.82,"population":0,"timezone":"Asia/Tokyo","country":"Japan"},{"name":"Perm","lat":58,"lon":56.25,"population":0,"timezone":"Asia/Yekaterinburg","country":"Russia"},{"name":"Ahvaz","lat":31.28,"lon":48.72,"population":0,"timezone":"Asia/Tehran","country":"Iran"},{"name":"Jodhpur","lat":26.2918,"lon":73.0168,"population":0,"timezone":"Asia/Kolkata","country":"India"},{"name":"San Luis Potosí","lat":22.17,"lon":-101,"population":0,"timezone":"America/Mexico_City","country":"Mexico"},{"name":"Odessa","lat":46.49,"lon":30.71,"population":0,"timezone":"Europe/Kiev","country":"Ukraine"},{"name":"Yinchuan","lat":38.468,"lon":106.273,"population":0,"timezone":"Asia/Shanghai","country":"China"},{"name":"Ndjamena","lat":12.1131,"lon":15.0491,"population":0,"timezone":"Africa/Ndjamena","country":"Chad"},{"name":"Donetsk","lat":48,"lon":37.83,"population":0,"timezone":"Europe/Kiev","country":"Ukraine"},{"name":"Joinville","lat":-26.32,"lon":-48.8399,"population":0,"timezone":"America/Sao_Paulo","country":"Brazil"},{"name":"Jiaxing","lat":30.7704,"lon":120.75,"population":0,"timezone":"Asia/Shanghai","country":"China"},{"name":"Guilin","lat":25.28,"lon":110.28,"population":0,"timezone":"Asia/Shanghai","country":"China"},{"name":"Dahuk","lat":36.8667,"lon":43,"population":0,"timezone":"Asia/Baghdad","country":"Iraq"},{"name":"Volgograd","lat":48.71,"lon":44.5,"population":0,"timezone":"Europe/Volgograd","country":"Russia"},{"name":"Guwahati","lat":26.16,"lon":91.77,"population":0,"timezone":"Asia/Kolkata","country":"India"},{"name":"Yichun","lat":27.8333,"lon":114.4,"population":0,"timezone":"Asia/Shanghai","country":"China"},{"name":"Yangquan","lat":37.87,"lon":113.57,"population":0,"timezone":"Asia/Shanghai","country":"China"},{"name":"Natal","lat":-6.9838,"lon":-60.2699,"population":0,"timezone":"America/Manaus","country":"Brazil"},{"name":"Chandigarh","lat":30.72,"lon":76.78,"population":0,"timezone":"Asia/Kolkata","country":"India"},{"name":"Gwalior","lat":26.23,"lon":78.1801,"population":0,"timezone":"Asia/Kolkata","country":"India"},{"name":"Hamamatsu","lat":34.7181,"lon":137.7327,"population":0,"timezone":"Asia/Tokyo","country":"Japan"},{"name":"Qom","lat":34.65,"lon":50.95,"population":0,"timezone":"Asia/Tehran","country":"Iran"},{"name":"Mérida","lat":20.9666,"lon":-89.6166,"population":0,"timezone":"America/Merida","country":"Mexico"},{"name":"Jixi","lat":45.3,"lon":130.97,"population":0,"timezone":"Asia/Shanghai","country":"China"},{"name":"Xinyi","lat":34.38,"lon":118.35,"population":0,"timezone":"Asia/Shanghai","country":"China"},{"name":"Querétaro","lat":20.63,"lon":-100.38,"population":0,"timezone":"America/Mexico_City","country":"Mexico"},{"name":"Pingxiang","lat":27.62,"lon":113.85,"population":0,"timezone":"Asia/Shanghai","country":"China"},{"name":"Kelang","lat":3.0204,"lon":101.55,"population":0,"timezone":"Asia/Kuala_Lumpur","country":"Malaysia"},{"name":"João Pessoa","lat":-7.1011,"lon":-34.8761,"population":0,"timezone":"America/Fortaleza","country":"Brazil"},{"name":"Jinzhou","lat":41.1204,"lon":121.1,"population":0,"timezone":"Asia/Shanghai","country":"China"},{"name":"Oklahoma City","lat":35.4676,"lon":-97.5136,"population":0,"timezone":"America/Chicago","country":"United States"},{"name":"Salerno","lat":40.6804,"lon":14.7699,"population":0,"timezone":"Europe/Rome","country":"Italy"},{"name":"Thiruvananthapuram","lat":8.5,"lon":76.95,"population":0,"timezone":"Asia/Kolkata","country":"India"},{"name":"Kozhikode","lat":11.2504,"lon":75.77,"population":0,"timezone":"Asia/Kolkata","country":"India"},{"name":"Ogbomosho","lat":8.13,"lon":4.24,"population":0,"timezone":"Africa/Lagos","country":"Nigeria"},{"name":"Tiruchirappalli","lat":10.81,"lon":78.69,"population":0,"timezone":"Asia/Kolkata","country":"India"},{"name":"General Santos","lat":6.1108,"lon":125.1747,"population":0,"timezone":"Asia/Manila","country":"Philippines"},{"name":"Hue","lat":16.47,"lon":107.58,"population":0,"timezone":"Asia/Ho_Chi_Minh","country":"Vietnam"},{"name":"Bacolod","lat":10.6317,"lon":122.9817,"population":0,"timezone":"Asia/Manila","country":"Philippines"},{"name":"Nantong","lat":32.0304,"lon":120.825,"population":0,"timezone":"Asia/Shanghai","country":"China"},{"name":"Tegucigalpa","lat":14.102,"lon":-87.2175,"population":0,"timezone":"America/Tegucigalpa","country":"Honduras"},{"name":"Foshan","lat":23.0301,"lon":113.12,"population":0,"timezone":"Asia/Shanghai","country":"China"},{"name":"Songnam","lat":37.4386,"lon":127.1378,"population":0,"timezone":"Asia/Seoul","country":"\"Korea"},{"name":"Bridgeport","lat":41.1909,"lon":-73.1958,"population":0,"timezone":"America/New_York","country":"United States"},{"name":"Kingston","lat":17.9771,"lon":-76.7674,"population":0,"timezone":"America/Jamaica","country":"Jamaica"},{"name":"Naypyidaw","lat":19.7666,"lon":96.1186,"population":0,"timezone":"Asia/Yangon","country":"Burma"},{"name":"Nice","lat":43.715,"lon":7.265,"population":0,"timezone":"Europe/Paris","country":"France"},{"name":"Buffalo","lat":42.9017,"lon":-78.8487,"population":0,"timezone":"America/New_York","country":"United States"},{"name":"Irbil","lat":36.179,"lon":44.0086,"population":0,"timezone":"Asia/Baghdad","country":"Iraq"},{"name":"Krasnoyarsk","lat":56.014,"lon":92.866,"population":0,"timezone":"Asia/Krasnoyarsk","country":"Russia"},{"name":"Djibouti","lat":11.595,"lon":43.148,"population":0,"timezone":"Africa/Djibouti","country":"Djibouti"},{"name":"Olinda","lat":-8,"lon":-34.85,"population":0,"timezone":"America/Recife","country":"Brazil"},{"name":"Managua","lat":12.153,"lon":-86.2685,"population":0,"timezone":"America/Managua","country":"Nicaragua"},{"name":"Antwerpen","lat":51.2204,"lon":4.415,"population":0,"timezone":"Europe/Brussels","country":"Belgium"},{"name":"Konya","lat":37.875,"lon":32.475,"population":0,"timezone":"Europe/Istanbul","country":"Turkey"},{"name":"Bogor","lat":-6.57,"lon":106.75,"population":0,"timezone":"Asia/Jakarta","country":"Indonesia"},{"name":"Niamey","lat":13.5167,"lon":2.1167,"population":0,"timezone":"Africa/Niamey","country":"Niger"},{"name":"Hartford","lat":41.7661,"lon":-72.6834,"population":0,"timezone":"America/New_York","country":"United States"},{"name":"Xinyu","lat":27.8,"lon":114.93,"population":0,"timezone":"Asia/Shanghai","country":"China"},{"name":"Huaibei","lat":33.9504,"lon":116.75,"population":0,"timezone":"Asia/Shanghai","country":"China"},{"name":"Teresina","lat":-5.095,"lon":-42.78,"population":0,"timezone":"America/Fortaleza","country":"Brazil"},{"name":"Naha","lat":26.2072,"lon":127.673,"population":0,"timezone":"Asia/Tokyo","country":"Japan"},{"name":"Xinxiang","lat":35.3204,"lon":113.87,"population":0,"timezone":"Asia/Shanghai","country":"China"},{"name":"Goyang","lat":37.6527,"lon":126.8372,"population":0,"timezone":"Asia/Seoul","country":"\"Korea"},{"name":"Yibin","lat":28.77,"lon":104.57,"population":0,"timezone":"Asia/Shanghai","country":"China"},{"name":"Aba","lat":5.1004,"lon":7.35,"population":0,"timezone":"Africa/Lagos","country":"Nigeria"},{"name":"Maiduguri","lat":11.85,"lon":13.16,"population":0,"timezone":"Africa/Lagos","country":"Nigeria"},{"name":"Tirana","lat":41.3275,"lon":19.8189,"population":0,"timezone":"Europe/Tirane","country":"Albania"},{"name":"Kathmandu","lat":27.7167,"lon":85.3166,"population":0,"timezone":"Asia/Kathmandu","country":"Nepal"},{"name":"Az Zarqa","lat":32.07,"lon":36.1,"population":0,"timezone":"Asia/Amman","country":"Jordan"},{"name":"Tarsus","lat":36.9204,"lon":34.88,"population":0,"timezone":"Europe/Istanbul","country":"Turkey"},{"name":"Bengbu","lat":32.95,"lon":117.33,"population":0,"timezone":"Asia/Shanghai","country":"China"},{"name":"Mendoza","lat":-32.8833,"lon":-68.8166,"population":0,"timezone":"America/Argentina/Mendoza","country":"Argentina"},{"name":"Hubli","lat":15.36,"lon":75.125,"population":0,"timezone":"Asia/Kolkata","country":"India"},{"name":"Concepción","lat":-36.83,"lon":-73.05,"population":0,"timezone":"America/Santiago","country":"Chile"},{"name":"Zaria","lat":11.08,"lon":7.71,"population":0,"timezone":"Africa/Lagos","country":"Nigeria"},{"name":"Anyang","lat":36.08,"lon":114.35,"population":0,"timezone":"Asia/Shanghai","country":"China"},{"name":"Cartagena","lat":10.3997,"lon":-75.5144,"population":0,"timezone":"America/Bogota","country":"Colombia"},{"name":"Mysore","lat":12.31,"lon":76.66,"population":0,"timezone":"Asia/Kolkata","country":"India"},{"name":"Ulaanbaatar","lat":47.9167,"lon":106.9166,"population":0,"timezone":"Asia/Ulaanbaatar","country":"Mongolia"},{"name":"Mexicali","lat":32.65,"lon":-115.48,"population":0,"timezone":"America/Tijuana","country":"Mexico"},{"name":"Tongliao","lat":43.62,"lon":122.27,"population":0,"timezone":"Asia/Shanghai","country":"China"},{"name":"Newcastle","lat":55.0004,"lon":-1.6,"population":0,"timezone":"Europe/London","country":"United Kingdom"},{"name":"Mombasa","lat":-4.04,"lon":39.6899,"population":0,"timezone":"Africa/Nairobi","country":"Kenya"},{"name":"Novo Hamburgo","lat":-29.7096,"lon":-51.14,"population":0,"timezone":"America/Sao_Paulo","country":"Brazil"},{"name":"Callao","lat":-12.07,"lon":-77.135,"population":0,"timezone":"America/Lima","country":"Peru"},{"name":"Bilbao","lat":43.25,"lon":-2.93,"population":0,"timezone":"Europe/Madrid","country":"Spain"},{"name":"Johor Bahru","lat":1.48,"lon":103.73,"population":0,"timezone":"Asia/Kuala_Lumpur","country":"Malaysia"},{"name":"Yichang","lat":30.7,"lon":111.28,"population":0,"timezone":"Asia/Shanghai","country":"China"},{"name":"Raipur","lat":21.235,"lon":81.635,"population":0,"timezone":"Asia/Kolkata","country":"India"},{"name":"Fort Worth","lat":32.7814,"lon":-97.3473,"population":0,"timezone":"America/Chicago","country":"United States"},{"name":"Salem","lat":11.67,"lon":78.1801,"population":0,"timezone":"Asia/Kolkata","country":"India"},{"name":"Yangjiang","lat":21.8504,"lon":111.97,"population":0,"timezone":"Asia/Shanghai","country":"China"},{"name":"Marrakesh","lat":31.63,"lon":-8,"population":0,"timezone":"Africa/Casablanca","country":"Morocco"},{"name":"Kaifeng","lat":34.85,"lon":114.35,"population":0,"timezone":"Asia/Shanghai","country":"China"},{"name":"Dandong","lat":40.1436,"lon":124.3936,"population":0,"timezone":"Asia/Shanghai","country":"China"},{"name":"Basra","lat":30.5135,"lon":47.8136,"population":0,"timezone":"Asia/Baghdad","country":"Iraq"},{"name":"Aguascalientes","lat":21.8795,"lon":-102.2904,"population":0,"timezone":"America/Mexico_City","country":"Mexico"},{"name":"Tucson","lat":32.1546,"lon":-110.8782,"population":0,"timezone":"America/Phoenix","country":"United States"},{"name":"Okayama","lat":34.672,"lon":133.9171,"population":0,"timezone":"Asia/Tokyo","country":"Japan"},{"name":"Xuanzhou","lat":30.9525,"lon":118.7553,"population":0,"timezone":"Asia/Shanghai","country":"China"},{"name":"Puch'on","lat":37.4989,"lon":126.7831,"population":0,"timezone":"Asia/Seoul","country":"\"Korea"},{"name":"Rizhao","lat":35.4304,"lon":119.45,"population":0,"timezone":"Asia/Shanghai","country":"China"},{"name":"Bandar Lampung","lat":-5.43,"lon":105.27,"population":0,"timezone":"Asia/Jakarta","country":"Indonesia"},{"name":"Palermo","lat":38.125,"lon":13.35,"population":0,"timezone":"Europe/Rome","country":"Italy"},{"name":"Cardiff","lat":51.5,"lon":-3.225,"population":0,"timezone":"Europe/London","country":"United Kingdom"},{"name":"Kigali","lat":-1.9536,"lon":30.0605,"population":0,"timezone":"Africa/Kigali","country":"Rwanda"},{"name":"Tampico","lat":22.3,"lon":-97.87,"population":0,"timezone":"America/Monterrey","country":"Mexico"},{"name":"Jiaozuo","lat":35.25,"lon":113.22,"population":0,"timezone":"Asia/Shanghai","country":"China"},{"name":"Padang","lat":-0.96,"lon":100.36,"population":0,"timezone":"Asia/Jakarta","country":"Indonesia"},{"name":"Jullundur","lat":31.3349,"lon":75.569,"population":0,"timezone":"Asia/Kolkata","country":"India"},{"name":"Valparaíso","lat":-33.0478,"lon":-71.621,"population":0,"timezone":"America/Santiago","country":"Chile"},{"name":"Zhenjiang","lat":32.22,"lon":119.43,"population":0,"timezone":"Asia/Shanghai","country":"China"},{"name":"Zunyi","lat":27.7,"lon":106.92,"population":0,"timezone":"Asia/Shanghai","country":"China"},{"name":"Anshun","lat":26.2504,"lon":105.93,"population":0,"timezone":"Asia/Shanghai","country":"China"},{"name":"Pingdingshan","lat":33.7304,"lon":113.3,"population":0,"timezone":"Asia/Shanghai","country":"China"},{"name":"Toulouse","lat":43.62,"lon":1.4499,"population":0,"timezone":"Europe/Paris","country":"France"},{"name":"El Paso","lat":31.8479,"lon":-106.4309,"population":0,"timezone":"America/Denver","country":"United States"},{"name":"Nova Iguaçu","lat":-22.74,"lon":-43.47,"population":0,"timezone":"America/Sao_Paulo","country":"Brazil"},{"name":"Voronezh","lat":51.73,"lon":39.27,"population":0,"timezone":"Europe/Moscow","country":"Russia"},{"name":"Bhubaneshwar","lat":20.2704,"lon":85.8274,"population":0,"timezone":"Asia/Kolkata","country":"India"},{"name":"Saratov","lat":51.58,"lon":46.03,"population":0,"timezone":"Europe/Saratov","country":"Russia"},{"name":"Yuci","lat":37.6804,"lon":112.73,"population":0,"timezone":"Asia/Shanghai","country":"China"},{"name":"Yancheng","lat":33.3856,"lon":120.1253,"population":0,"timezone":"Asia/Shanghai","country":"China"},{"name":"Bishkek","lat":42.8731,"lon":74.5852,"population":0,"timezone":"Asia/Bishkek","country":"Kyrgyzstan"},{"name":"Oslo","lat":59.9167,"lon":10.75,"population":0,"timezone":"Europe/Oslo","country":"Norway"},{"name":"Cuernavaca","lat":18.9211,"lon":-99.24,"population":0,"timezone":"America/Mexico_City","country":"Mexico"},{"name":"Linfen","lat":36.0803,"lon":111.52,"population":0,"timezone":"Asia/Shanghai","country":"China"},{"name":"Honolulu","lat":21.3294,"lon":-157.846,"population":0,"timezone":"Pacific/Honolulu","country":"United States"},{"name":"Bangui","lat":4.3666,"lon":18.5583,"population":0,"timezone":"Africa/Bangui","country":"Central African Republic"},{"name":"Warri","lat":5.52,"lon":5.76,"population":0,"timezone":"Africa/Lagos","country":"Nigeria"},{"name":"Tucumán","lat":-26.816,"lon":-65.2166,"population":0,"timezone":"America/Argentina/Tucuman","country":"Argentina"},{"name":"Basel","lat":47.5804,"lon":7.59,"population":0,"timezone":"Europe/Zurich","country":"Switzerland"},{"name":"Kermanshah","lat":34.38,"lon":47.06,"population":0,"timezone":"Asia/Tehran","country":"Iran"},{"name":"Thessaloniki","lat":40.6961,"lon":22.885,"population":0,"timezone":"Europe/Athens","country":"Greece"},{"name":"Omaha","lat":41.2628,"lon":-96.0495,"population":0,"timezone":"America/Chicago","country":"United States"},{"name":"Freetown","lat":8.47,"lon":-13.2342,"population":0,"timezone":"Africa/Freetown","country":"Sierra Leone"},{"name":"Kota","lat":25.18,"lon":75.835,"population":0,"timezone":"Asia/Kolkata","country":"India"},{"name":"Braga","lat":41.555,"lon":-8.4213,"population":0,"timezone":"Europe/Lisbon","country":"Portugal"},{"name":"Jhansi","lat":25.453,"lon":78.5575,"population":0,"timezone":"Asia/Kolkata","country":"India"},{"name":"Yueyang","lat":29.3801,"lon":113.1,"population":0,"timezone":"Asia/Shanghai","country":"China"},{"name":"Nottingham","lat":52.9703,"lon":-1.17,"population":0,"timezone":"Europe/London","country":"United Kingdom"},{"name":"Agadir","lat":30.44,"lon":-9.62,"population":0,"timezone":"Africa/Casablanca","country":"Morocco"},{"name":"Butterworth","lat":5.4171,"lon":100.4,"population":0,"timezone":"Asia/Kuala_Lumpur","country":"Malaysia"},{"name":"Bareilly","lat":28.3454,"lon":79.42,"population":0,"timezone":"Asia/Kolkata","country":"India"},{"name":"Jos","lat":9.93,"lon":8.89,"population":0,"timezone":"Africa/Lagos","country":"Nigeria"},{"name":"Xingyi","lat":25.0904,"lon":104.89,"population":0,"timezone":"Asia/Shanghai","country":"China"},{"name":"Arequipa","lat":-16.42,"lon":-71.53,"population":0,"timezone":"America/Lima","country":"Peru"},{"name":"Cebu","lat":10.32,"lon":123.9001,"population":0,"timezone":"Asia/Manila","country":"Philippines"},{"name":"Liverpool","lat":53.416,"lon":-2.918,"population":0,"timezone":"Europe/London","country":"United Kingdom"},{"name":"Rajshahi","lat":24.375,"lon":88.605,"population":0,"timezone":"Asia/Dhaka","country":"Bangladesh"},{"name":"Langfang","lat":39.5204,"lon":116.68,"population":0,"timezone":"Asia/Shanghai","country":"China"},{"name":"Wuhu","lat":31.3504,"lon":118.37,"population":0,"timezone":"Asia/Shanghai","country":"China"},{"name":"Culiacán","lat":24.83,"lon":-107.38,"population":0,"timezone":"America/Mazatlan","country":"Mexico"},{"name":"Zhaotang","lat":27.3204,"lon":103.72,"population":0,"timezone":"Asia/Shanghai","country":"China"},{"name":"Valencia","lat":39.485,"lon":-0.4,"population":0,"timezone":"Europe/Madrid","country":"Spain"},{"name":"Cuiabá","lat":-15.5696,"lon":-56.085,"population":0,"timezone":"America/Cuiaba","country":"Brazil"},{"name":"Lingyuan","lat":41.24,"lon":119.4011,"population":0,"timezone":"Asia/Shanghai","country":"China"},{"name":"Qui Nhon","lat":13.78,"lon":109.18,"population":0,"timezone":"Asia/Ho_Chi_Minh","country":"Vietnam"},{"name":"Malang","lat":-7.98,"lon":112.61,"population":0,"timezone":"Asia/Jakarta","country":"Indonesia"},{"name":"Aligarh","lat":27.8922,"lon":78.0618,"population":0,"timezone":"Asia/Kolkata","country":"India"},{"name":"Lvov","lat":49.835,"lon":24.03,"population":0,"timezone":"Europe/Kiev","country":"Ukraine"},{"name":"Bordeaux","lat":44.85,"lon":-0.595,"population":0,"timezone":"Europe/Paris","country":"France"},{"name":"McAllen","lat":26.2325,"lon":-98.2467,"population":0,"timezone":"America/Chicago","country":"United States"},{"name":"Baoji","lat":34.38,"lon":107.15,"population":0,"timezone":"Asia/Shanghai","country":"China"},{"name":"Pekanbaru","lat":0.565,"lon":101.425,"population":0,"timezone":"Asia/Jakarta","country":"Indonesia"},{"name":"Oran","lat":35.71,"lon":-0.62,"population":0,"timezone":"Africa/Algiers","country":"Algeria"},{"name":"Yingkow","lat":40.6703,"lon":122.28,"population":0,"timezone":"Asia/Shanghai","country":"China"},{"name":"Bhiwandi","lat":19.35,"lon":73.13,"population":0,"timezone":"Asia/Kolkata","country":"India"},{"name":"Liaoyang","lat":41.28,"lon":123.18,"population":0,"timezone":"Asia/Shanghai","country":"China"},{"name":"Chihuahua","lat":28.645,"lon":-106.085,"population":0,"timezone":"America/Chihuahua","country":"Mexico"},{"name":"Jammu","lat":32.7118,"lon":74.8467,"population":0,"timezone":"Asia/Kolkata","country":"India"},{"name":"Malacca","lat":2.2064,"lon":102.2465,"population":0,"timezone":"Asia/Kuala_Lumpur","country":"Malaysia"},{"name":"Zaporizhzhya","lat":47.8573,"lon":35.1768,"population":0,"timezone":"Europe/Zaporozhye","country":"Ukraine"},{"name":"Moradabad","lat":28.8418,"lon":78.7568,"population":0,"timezone":"Asia/Kolkata","country":"India"},{"name":"Antalya","lat":36.89,"lon":30.7,"population":0,"timezone":"Europe/Istanbul","country":"Turkey"},{"name":"Al Hudaydah","lat":14.7979,"lon":42.953,"population":0,"timezone":"Asia/Aden","country":"Yemen"},{"name":"Islamabad","lat":33.7,"lon":73.1666,"population":0,"timezone":"Asia/Karachi","country":"Pakistan"},{"name":"Campo Grande","lat":-20.45,"lon":-54.6166,"population":0,"timezone":"America/Campo_Grande","country":"Brazil"},{"name":"Shaoxing","lat":30.0004,"lon":120.57,"population":0,"timezone":"Asia/Shanghai","country":"China"},{"name":"Yichun","lat":47.6999,"lon":128.9,"population":0,"timezone":"Asia/Shanghai","country":"China"},{"name":"Mangalore","lat":12.9,"lon":74.85,"population":0,"timezone":"Asia/Kolkata","country":"India"},{"name":"Wuppertal","lat":51.25,"lon":7.17,"population":0,"timezone":"Europe/Berlin","country":"Germany"},{"name":"Cheongju","lat":36.6439,"lon":127.5012,"population":0,"timezone":"Asia/Seoul","country":"\"Korea"},{"name":"Zamboanga","lat":6.92,"lon":122.08,"population":0,"timezone":"Asia/Manila","country":"Philippines"},{"name":"Hamhung","lat":39.9101,"lon":127.5454,"population":0,"timezone":"Asia/Pyongyang","country":"\"Korea"},{"name":"Ilorin","lat":8.49,"lon":4.55,"population":0,"timezone":"Africa/Lagos","country":"Nigeria"},{"name":"Fuyang","lat":30.0533,"lon":119.9519,"population":0,"timezone":"Asia/Shanghai","country":"China"},{"name":"Saarbrücken","lat":49.2504,"lon":6.97,"population":0,"timezone":"Europe/Berlin","country":"Germany"},{"name":"Fuxin","lat":42.0105,"lon":121.66,"population":0,"timezone":"Asia/Shanghai","country":"China"},{"name":"Shiyan","lat":32.57,"lon":110.78,"population":0,"timezone":"Asia/Shanghai","country":"China"},{"name":"Quetta","lat":30.22,"lon":67.025,"population":0,"timezone":"Asia/Karachi","country":"Pakistan"},{"name":"Trujillo","lat":-8.12,"lon":-79.02,"population":0,"timezone":"America/Lima","country":"Peru"},{"name":"Kananga","lat":-5.89,"lon":22.4,"population":0,"timezone":"Africa/Lubumbashi","country":"Congo (Kinshasa)"},{"name":"Trabzon","lat":40.98,"lon":39.72,"population":0,"timezone":"Europe/Istanbul","country":"Turkey"},{"name":"Cotonou","lat":6.4,"lon":2.52,"population":0,"timezone":"Africa/Porto-Novo","country":"Benin"},{"name":"Jincheng","lat":35.5004,"lon":112.83,"population":0,"timezone":"Asia/Shanghai","country":"China"},{"name":"Albuquerque","lat":35.1053,"lon":-106.6464,"population":0,"timezone":"America/Denver","country":"United States"},{"name":"Łódź","lat":51.775,"lon":19.4514,"population":0,"timezone":"Europe/Warsaw","country":"Poland"},{"name":"Kraków","lat":50.06,"lon":19.96,"population":0,"timezone":"Europe/Warsaw","country":"Poland"},{"name":"Vientiane","lat":17.9667,"lon":102.6,"population":0,"timezone":"Asia/Vientiane","country":"Laos"},{"name":"Saltillo","lat":25.42,"lon":-101.005,"population":0,"timezone":"America/Monterrey","country":"Mexico"},{"name":"São José dos Campos","lat":-23.2,"lon":-45.8799,"population":0,"timezone":"America/Sao_Paulo","country":"Brazil"},{"name":"Hungnam","lat":39.8231,"lon":127.6232,"population":0,"timezone":"Asia/Pyongyang","country":"\"Korea"},{"name":"Taizz","lat":13.6045,"lon":44.0394,"population":0,"timezone":"Asia/Aden","country":"Yemen"},{"name":"Pietermaritzburg","lat":-29.61,"lon":30.39,"population":0,"timezone":"Africa/Johannesburg","country":"South Africa"},{"name":"Tangier","lat":35.7473,"lon":-5.8327,"population":0,"timezone":"Africa/Casablanca","country":"Morocco"},{"name":"Changhua","lat":24.0734,"lon":120.5134,"population":0,"timezone":"Asia/Taipei","country":"Taiwan"},{"name":"Hsinchu","lat":24.8168,"lon":120.9767,"population":0,"timezone":"Asia/Taipei","country":"Taiwan"},{"name":"Fargona","lat":40.39,"lon":71.78,"population":0,"timezone":"Asia/Tashkent","country":"Uzbekistan"},{"name":"Namangan","lat":41,"lon":71.67,"population":0,"timezone":"Asia/Tashkent","country":"Uzbekistan"},{"name":"Kolhapur","lat":16.7,"lon":74.22,"population":0,"timezone":"Asia/Kolkata","country":"India"},{"name":"Liège","lat":50.63,"lon":5.58,"population":0,"timezone":"Europe/Brussels","country":"Belgium"},{"name":"Ciudad Guayana","lat":8.37,"lon":-62.62,"population":0,"timezone":"America/Caracas","country":"Venezuela"},{"name":"Birmingham","lat":33.5276,"lon":-86.7988,"population":0,"timezone":"America/Chicago","country":"United States"},{"name":"Hegang","lat":47.4,"lon":130.37,"population":0,"timezone":"Asia/Shanghai","country":"China"},{"name":"Riga","lat":56.95,"lon":24.1,"population":0,"timezone":"Europe/Riga","country":"Latvia"},{"name":"Nouakchott","lat":18.0864,"lon":-15.9753,"population":0,"timezone":"Africa/Nouakchott","country":"Mauritania"},{"name":"Naga","lat":13.6192,"lon":123.1814,"population":0,"timezone":"Asia/Manila","country":"Philippines"},{"name":"Gdańsk","lat":54.36,"lon":18.64,"population":0,"timezone":"Europe/Warsaw","country":"Poland"},{"name":"Ansan","lat":37.3481,"lon":126.8595,"population":0,"timezone":"Asia/Seoul","country":"\"Korea"},{"name":"Nürnberg","lat":49.45,"lon":11.08,"population":0,"timezone":"Europe/Berlin","country":"Germany"},{"name":"Oyo","lat":7.8504,"lon":3.93,"population":0,"timezone":"Africa/Lagos","country":"Nigeria"},{"name":"Muscat","lat":23.6133,"lon":58.5933,"population":0,"timezone":"Asia/Muscat","country":"Oman"},{"name":"Amravati","lat":20.95,"lon":77.77,"population":0,"timezone":"Asia/Kolkata","country":"India"},{"name":"Denpasar","lat":-8.65,"lon":115.22,"population":0,"timezone":"Asia/Makassar","country":"Indonesia"},{"name":"Sokoto","lat":13.06,"lon":5.24,"population":0,"timezone":"Africa/Lagos","country":"Nigeria"},{"name":"Beihai","lat":21.4804,"lon":109.1,"population":0,"timezone":"Asia/Shanghai","country":"China"},{"name":"Ashgabat","lat":37.95,"lon":58.3833,"population":0,"timezone":"Asia/Ashgabat","country":"Turkmenistan"},{"name":"Bremen","lat":53.08,"lon":8.8,"population":0,"timezone":"Europe/Berlin","country":"Germany"},{"name":"As Sulaymaniyah","lat":35.5613,"lon":45.4309,"population":0,"timezone":"Asia/Baghdad","country":"Iraq"},{"name":"Zagreb","lat":45.8,"lon":16,"population":0,"timezone":"Europe/Zagreb","country":"Croatia"},{"name":"Hannover","lat":52.367,"lon":9.7167,"population":0,"timezone":"Europe/Berlin","country":"Germany"},{"name":"Cúcuta","lat":7.92,"lon":-72.52,"population":0,"timezone":"America/Bogota","country":"Colombia"},{"name":"Hamilton","lat":43.25,"lon":-79.83,"population":0,"timezone":"America/Toronto","country":"Canada"},{"name":"Moshi","lat":-3.3396,"lon":37.34,"population":0,"timezone":"Africa/Dar_es_Salaam","country":"Tanzania"},{"name":"Shaoguan","lat":24.8,"lon":113.58,"population":0,"timezone":"Asia/Shanghai","country":"China"},{"name":"Kumamoto","lat":32.8009,"lon":130.7006,"population":0,"timezone":"Asia/Tokyo","country":"Japan"},{"name":"Dayton","lat":39.7797,"lon":-84.1998,"population":0,"timezone":"America/New_York","country":"United States"},{"name":"Lianyungang","lat":34.6004,"lon":119.17,"population":0,"timezone":"Asia/Shanghai","country":"China"},{"name":"Acapulco","lat":16.85,"lon":-99.916,"population":0,"timezone":"America/Mexico_City","country":"Mexico"},{"name":"Kandahar","lat":31.61,"lon":65.6949,"population":0,"timezone":"Asia/Kabul","country":"Afghanistan"},{"name":"Dehra Dun","lat":30.3204,"lon":78.05,"population":0,"timezone":"Asia/Kolkata","country":"India"},{"name":"Rochester","lat":43.168,"lon":-77.6162,"population":0,"timezone":"America/New_York","country":"United States"},{"name":"Jeonju","lat":35.8314,"lon":127.1404,"population":0,"timezone":"Asia/Seoul","country":"\"Korea"},{"name":"Samarqand","lat":39.67,"lon":66.945,"population":0,"timezone":"Asia/Samarkand","country":"Uzbekistan"},{"name":"Qingyuan","lat":23.7004,"lon":113.0301,"population":0,"timezone":"Asia/Shanghai","country":"China"},{"name":"Sarasota","lat":27.3391,"lon":-82.5439,"population":0,"timezone":"America/New_York","country":"United States"},{"name":"Changzhi","lat":36.1839,"lon":113.1053,"population":0,"timezone":"Asia/Shanghai","country":"China"},{"name":"Tolyatti","lat":53.4804,"lon":49.53,"population":0,"timezone":"Europe/Samara","country":"Russia"},{"name":"Jaboatao","lat":-8.11,"lon":-35.02,"population":0,"timezone":"America/Recife","country":"Brazil"},{"name":"Shizuoka","lat":34.9858,"lon":138.3854,"population":0,"timezone":"Asia/Tokyo","country":"Japan"},{"name":"Bulawayo","lat":-20.17,"lon":28.58,"population":0,"timezone":"Africa/Harare","country":"Zimbabwe"},{"name":"Soledad","lat":10.92,"lon":-74.77,"population":0,"timezone":"America/Bogota","country":"Colombia"},{"name":"Fresno","lat":36.7834,"lon":-119.7941,"population":0,"timezone":"America/Los_Angeles","country":"United States"},{"name":"Meknes","lat":33.9004,"lon":-5.56,"population":0,"timezone":"Africa/Casablanca","country":"Morocco"},{"name":"Sarajevo","lat":43.85,"lon":18.383,"population":0,"timezone":"Europe/Sarajevo","country":"Bosnia And Herzegovina"},{"name":"La Plata","lat":-34.9096,"lon":-57.96,"population":0,"timezone":"America/Argentina/Buenos_Aires","country":"Argentina"},{"name":"Malegaon","lat":20.5604,"lon":74.525,"population":0,"timezone":"Asia/Kolkata","country":"India"},{"name":"Enugu","lat":6.45,"lon":7.5,"population":0,"timezone":"Africa/Lagos","country":"Nigeria"},{"name":"Chișinău","lat":47.005,"lon":28.8577,"population":0,"timezone":"Europe/Chisinau","country":"Moldova"},{"name":"Huangshi","lat":30.22,"lon":115.1,"population":0,"timezone":"Asia/Shanghai","country":"China"},{"name":"Aracaju","lat":-10.9,"lon":-37.12,"population":0,"timezone":"America/Maceio","country":"Brazil"},{"name":"Allentown","lat":40.5961,"lon":-75.4756,"population":0,"timezone":"America/New_York","country":"United States"},{"name":"Bonn","lat":50.7205,"lon":7.08,"population":0,"timezone":"Europe/Berlin","country":"Germany"},{"name":"San Pedro Sula","lat":15.5,"lon":-88.03,"population":0,"timezone":"America/Tegucigalpa","country":"Honduras"},{"name":"Nellore","lat":14.44,"lon":79.9899,"population":0,"timezone":"Asia/Kolkata","country":"India"},{"name":"Catania","lat":37.5,"lon":15.08,"population":0,"timezone":"Europe/Rome","country":"Italy"},{"name":"Gorakhpur","lat":26.7504,"lon":83.38,"population":0,"timezone":"Asia/Kolkata","country":"India"},{"name":"Ipoh","lat":4.6,"lon":101.065,"population":0,"timezone":"Asia/Kuala_Lumpur","country":"Malaysia"},{"name":"Chongjin","lat":41.7846,"lon":129.79,"population":0,"timezone":"Asia/Pyongyang","country":"\"Korea"},{"name":"Tulsa","lat":36.1284,"lon":-95.9042,"population":0,"timezone":"America/Chicago","country":"United States"},{"name":"Utsunomiya","lat":36.55,"lon":139.87,"population":0,"timezone":"Asia/Tokyo","country":"Japan"},{"name":"Puyang","lat":35.7004,"lon":114.98,"population":0,"timezone":"Asia/Shanghai","country":"China"},{"name":"An Najaf","lat":32.0003,"lon":44.3354,"population":0,"timezone":"Asia/Baghdad","country":"Iraq"},{"name":"São José dos Pinhais","lat":-25.57,"lon":-49.18,"population":0,"timezone":"America/Sao_Paulo","country":"Brazil"},{"name":"Santo André","lat":-23.6528,"lon":-46.5278,"population":0,"timezone":"America/Sao_Paulo","country":"Brazil"},{"name":"Bytom","lat":50.35,"lon":18.91,"population":0,"timezone":"Europe/Warsaw","country":"Poland"},{"name":"Pointe-Noire","lat":-4.77,"lon":11.88,"population":0,"timezone":"Africa/Brazzaville","country":"Congo (Brazzaville)"},{"name":"At Taif","lat":21.2622,"lon":40.3823,"population":0,"timezone":"Asia/Riyadh","country":"Saudi Arabia"},{"name":"Ismaïlia","lat":30.5903,"lon":32.26,"population":0,"timezone":"Africa/Cairo","country":"Egypt"},{"name":"Concord","lat":37.9722,"lon":-122.0016,"population":0,"timezone":"America/Los_Angeles","country":"United States"},{"name":"Shimoga","lat":13.9304,"lon":75.56,"population":0,"timezone":"Asia/Kolkata","country":"India"},{"name":"Biên Hòa","lat":10.97,"lon":106.8301,"population":0,"timezone":"Asia/Ho_Chi_Minh","country":"Vietnam"},{"name":"Zhanyi","lat":25.6005,"lon":103.8166,"population":0,"timezone":"Asia/Shanghai","country":"China"},{"name":"Kryvyy Rih","lat":47.9283,"lon":33.345,"population":0,"timezone":"Europe/Kiev","country":"Ukraine"},{"name":"Andijon","lat":40.79,"lon":72.34,"population":0,"timezone":"Asia/Tashkent","country":"Uzbekistan"},{"name":"Tiruppur","lat":11.0804,"lon":77.33,"population":0,"timezone":"Asia/Kolkata","country":"India"},{"name":"Irbid","lat":32.55,"lon":35.85,"population":0,"timezone":"Asia/Amman","country":"Jordan"},{"name":"Krasnodar","lat":45.02,"lon":39,"population":0,"timezone":"Europe/Moscow","country":"Russia"},{"name":"Zaragoza","lat":41.65,"lon":-0.89,"population":0,"timezone":"Europe/Madrid","country":"Spain"},{"name":"Genoa","lat":44.41,"lon":8.93,"population":0,"timezone":"Europe/Rome","country":"Italy"},{"name":"Lilongwe","lat":-13.9833,"lon":33.7833,"population":0,"timezone":"Africa/Blantyre","country":"Malawi"},{"name":"Diyarbakır","lat":37.9204,"lon":40.23,"population":0,"timezone":"Europe/Istanbul","country":"Turkey"},{"name":"Morelia","lat":19.7334,"lon":-101.1895,"population":0,"timezone":"America/Mexico_City","country":"Mexico"},{"name":"Ulyanovsk","lat":54.33,"lon":48.41,"population":0,"timezone":"Europe/Ulyanovsk","country":"Russia"},{"name":"Utrecht","lat":52.1003,"lon":5.12,"population":0,"timezone":"Europe/Amsterdam","country":"Netherlands"},{"name":"Kikwit","lat":-5.03,"lon":18.85,"population":0,"timezone":"Africa/Kinshasa","country":"Congo (Kinshasa)"},{"name":"Al Hufuf","lat":25.3487,"lon":49.5856,"population":0,"timezone":"Asia/Riyadh","country":"Saudi Arabia"},{"name":"Yogyakarta","lat":-7.78,"lon":110.375,"population":0,"timezone":"Asia/Jakarta","country":"Indonesia"},{"name":"Wrocław","lat":51.1104,"lon":17.03,"population":0,"timezone":"Europe/Warsaw","country":"Poland"},{"name":"Winnipeg","lat":49.883,"lon":-97.166,"population":0,"timezone":"America/Winnipeg","country":"Canada"},{"name":"Izhevsk","lat":56.85,"lon":53.23,"population":0,"timezone":"Europe/Samara","country":"Russia"},{"name":"Cape Coral","lat":26.6444,"lon":-81.9956,"population":0,"timezone":"America/New_York","country":"United States"},{"name":"Springfield","lat":42.1155,"lon":-72.5395,"population":0,"timezone":"America/New_York","country":"United States"},{"name":"Zhuozhou","lat":39.5401,"lon":115.79,"population":0,"timezone":"Asia/Shanghai","country":"China"},{"name":"Raurkela","lat":22.2304,"lon":84.83,"population":0,"timezone":"Asia/Kolkata","country":"India"},{"name":"Québec","lat":46.84,"lon":-71.2456,"population":0,"timezone":"America/Toronto","country":"Canada"},{"name":"Poznań","lat":52.4058,"lon":16.8999,"population":0,"timezone":"Europe/Warsaw","country":"Poland"},{"name":"Colorado Springs","lat":38.8674,"lon":-104.7606,"population":0,"timezone":"America/Denver","country":"United States"},{"name":"Bur Said","lat":31.26,"lon":32.29,"population":0,"timezone":"Africa/Cairo","country":"Egypt"},{"name":"Nanded","lat":19.17,"lon":77.3,"population":0,"timezone":"Asia/Kolkata","country":"India"},{"name":"Bannu","lat":32.989,"lon":70.5986,"population":0,"timezone":"Asia/Karachi","country":"Pakistan"},{"name":"Asmara","lat":15.3333,"lon":38.9333,"population":0,"timezone":"Africa/Asmara","country":"Eritrea"},{"name":"Southend-on-Sea","lat":51.55,"lon":0.72,"population":0,"timezone":"Europe/London","country":"United Kingdom"},{"name":"Dresden","lat":51.05,"lon":13.75,"population":0,"timezone":"Europe/Berlin","country":"Germany"},{"name":"Wiesbaden","lat":50.0804,"lon":8.25,"population":0,"timezone":"Europe/Berlin","country":"Germany"},{"name":"Charleston","lat":32.8137,"lon":-79.9643,"population":0,"timezone":"America/New_York","country":"United States"},{"name":"Changping","lat":40.2248,"lon":116.1944,"population":0,"timezone":"Asia/Shanghai","country":"China"},{"name":"Palu","lat":-0.907,"lon":119.833,"population":0,"timezone":"Asia/Makassar","country":"Indonesia"},{"name":"Taizhou","lat":32.4904,"lon":119.9,"population":0,"timezone":"Asia/Shanghai","country":"China"},{"name":"Xiangtai","lat":37.05,"lon":114.5,"population":0,"timezone":"Asia/Shanghai","country":"China"},{"name":"Samsun","lat":41.28,"lon":36.3437,"population":0,"timezone":"Europe/Istanbul","country":"Turkey"},{"name":"Luxor","lat":25.7,"lon":32.65,"population":0,"timezone":"Africa/Cairo","country":"Egypt"},{"name":"Belgaum","lat":15.865,"lon":74.505,"population":0,"timezone":"Asia/Kolkata","country":"India"},{"name":"Pontianak","lat":-0.03,"lon":109.32,"population":0,"timezone":"Asia/Pontianak","country":"Indonesia"},{"name":"Yaroslavl","lat":57.62,"lon":39.87,"population":0,"timezone":"Europe/Moscow","country":"Russia"},{"name":"Constantine","lat":36.36,"lon":6.5999,"population":0,"timezone":"Africa/Algiers","country":"Algeria"},{"name":"Bandjarmasin","lat":-3.33,"lon":114.5801,"population":0,"timezone":"Asia/Makassar","country":"Indonesia"},{"name":"Abu Dhabi","lat":24.4667,"lon":54.3666,"population":0,"timezone":"Asia/Dubai","country":"United Arab Emirates"},{"name":"Grand Rapids","lat":42.9615,"lon":-85.6557,"population":0,"timezone":"America/Detroit","country":"United States"},{"name":"Kirkuk","lat":35.4722,"lon":44.3923,"population":0,"timezone":"Asia/Baghdad","country":"Iraq"},{"name":"Sangli","lat":16.8604,"lon":74.575,"population":0,"timezone":"Asia/Kolkata","country":"India"},{"name":"Barcelona","lat":10.1304,"lon":-64.72,"population":0,"timezone":"America/Caracas","country":"Venezuela"},{"name":"Mission Viejo","lat":33.6095,"lon":-117.6551,"population":0,"timezone":"America/Los_Angeles","country":"United States"},{"name":"Canoas","lat":-29.92,"lon":-51.18,"population":0,"timezone":"America/Sao_Paulo","country":"Brazil"},{"name":"El Mansura","lat":31.0504,"lon":31.38,"population":0,"timezone":"Africa/Cairo","country":"Egypt"},{"name":"Sohag","lat":26.5504,"lon":31.7,"population":0,"timezone":"Africa/Cairo","country":"Egypt"},{"name":"Barnaul","lat":53.355,"lon":83.745,"population":0,"timezone":"Asia/Barnaul","country":"Russia"},{"name":"Zahedan","lat":29.5,"lon":60.83,"population":0,"timezone":"Asia/Tehran","country":"Iran"},{"name":"Jalalabad","lat":34.4415,"lon":70.4361,"population":0,"timezone":"Asia/Kabul","country":"Afghanistan"},{"name":"Albany","lat":42.6664,"lon":-73.7987,"population":0,"timezone":"America/New_York","country":"United States"},{"name":"Chiclayo","lat":-6.7629,"lon":-79.8366,"population":0,"timezone":"America/Lima","country":"Peru"},{"name":"Hermosillo","lat":29.0989,"lon":-110.9541,"population":0,"timezone":"America/Hermosillo","country":"Mexico"},{"name":"Port Louis","lat":-20.1666,"lon":57.5,"population":0,"timezone":"Indian/Mauritius","country":"Mauritius"},{"name":"Chandrapur","lat":19.97,"lon":79.3,"population":0,"timezone":"Asia/Kolkata","country":"India"},{"name":"Al Hillah","lat":23.4895,"lon":46.7564,"population":0,"timezone":"Asia/Riyadh","country":"Saudi Arabia"},{"name":"Al Hillah","lat":32.4721,"lon":44.4217,"population":0,"timezone":"Asia/Baghdad","country":"Iraq"},{"name":"Rasht","lat":37.3,"lon":49.63,"population":0,"timezone":"Asia/Tehran","country":"Iran"},{"name":"Nagano","lat":36.65,"lon":138.17,"population":0,"timezone":"Asia/Tokyo","country":"Japan"},{"name":"Vinh","lat":18.7,"lon":105.68,"population":0,"timezone":"Asia/Bangkok","country":"Vietnam"},{"name":"Abeokuta","lat":7.1604,"lon":3.35,"population":0,"timezone":"Africa/Lagos","country":"Nigeria"},{"name":"Kayseri","lat":38.735,"lon":35.49,"population":0,"timezone":"Europe/Istanbul","country":"Turkey"},{"name":"Samarinda","lat":-0.5,"lon":117.15,"population":0,"timezone":"Asia/Makassar","country":"Indonesia"},{"name":"Ajmer","lat":26.45,"lon":74.64,"population":0,"timezone":"Asia/Kolkata","country":"India"},{"name":"Dortmund","lat":51.53,"lon":7.45,"population":0,"timezone":"Europe/Berlin","country":"Germany"},{"name":"Vladivostok","lat":43.13,"lon":131.91,"population":0,"timezone":"Asia/Vladivostok","country":"Russia"},{"name":"Irkutsk","lat":52.32,"lon":104.245,"population":0,"timezone":"Asia/Irkutsk","country":"Russia"},{"name":"Knoxville","lat":35.9692,"lon":-83.9495,"population":0,"timezone":"America/New_York","country":"United States"},{"name":"Blantyre","lat":-15.79,"lon":34.9899,"population":0,"timezone":"Africa/Blantyre","country":"Malawi"},{"name":"Baton Rouge","lat":30.4423,"lon":-91.1314,"population":0,"timezone":"America/Chicago","country":"United States"},{"name":"Anqing","lat":30.5,"lon":117.05,"population":0,"timezone":"Asia/Shanghai","country":"China"},{"name":"Cuttack","lat":20.47,"lon":85.8899,"population":0,"timezone":"Asia/Kolkata","country":"India"},{"name":"Hachiōji","lat":35.6577,"lon":139.3261,"population":0,"timezone":"Asia/Tokyo","country":"Japan"},{"name":"Khabarovsk","lat":48.455,"lon":135.12,"population":0,"timezone":"Asia/Vladivostok","country":"Russia"},{"name":"Veracruz","lat":19.1773,"lon":-96.16,"population":0,"timezone":"America/Mexico_City","country":"Mexico"},{"name":"Kisangani","lat":0.52,"lon":25.22,"population":0,"timezone":"Africa/Lubumbashi","country":"Congo (Kinshasa)"},{"name":"Libreville","lat":0.3854,"lon":9.458,"population":0,"timezone":"Africa/Libreville","country":"Gabon"},{"name":"Kerman","lat":30.3,"lon":57.08,"population":0,"timezone":"Asia/Tehran","country":"Iran"},{"name":"Urmia","lat":37.53,"lon":45,"population":0,"timezone":"Asia/Tehran","country":"Iran"},{"name":"Bikaner","lat":28.0304,"lon":73.3299,"population":0,"timezone":"Asia/Kolkata","country":"India"},{"name":"Quetzaltenango","lat":14.83,"lon":-91.52,"population":0,"timezone":"America/Guatemala","country":"Guatemala"},{"name":"Bakersfield","lat":35.353,"lon":-119.036,"population":0,"timezone":"America/Los_Angeles","country":"United States"},{"name":"Ogden","lat":41.228,"lon":-111.9677,"population":0,"timezone":"America/Denver","country":"United States"},{"name":"Shihezi","lat":44.3,"lon":86.0299,"population":0,"timezone":"Asia/Urumqi","country":"China"},{"name":"Kuching","lat":1.53,"lon":110.33,"population":0,"timezone":"Asia/Kuching","country":"Malaysia"},{"name":"Shuozhou","lat":39.3004,"lon":112.42,"population":0,"timezone":"Asia/Shanghai","country":"China"},{"name":"Niigata","lat":37.92,"lon":139.04,"population":0,"timezone":"Asia/Tokyo","country":"Japan"},{"name":"Pereira","lat":4.8104,"lon":-75.68,"population":0,"timezone":"America/Bogota","country":"Colombia"},{"name":"Macau","lat":22.203,"lon":113.545,"population":0,"timezone":"Asia/Macau","country":"Macau"},{"name":"New Haven","lat":41.3112,"lon":-72.9245,"population":0,"timezone":"America/New_York","country":"United States"},{"name":"Bouaké","lat":7.69,"lon":-5.03,"population":0,"timezone":"Africa/Abidjan","country":"Côte D’Ivoire"},{"name":"Columbia","lat":34.037,"lon":-80.9042,"population":0,"timezone":"America/New_York","country":"United States"},{"name":"Akron","lat":41.0802,"lon":-81.5219,"population":0,"timezone":"America/New_York","country":"United States"},{"name":"Binjai","lat":3.6204,"lon":98.5001,"population":0,"timezone":"Asia/Jakarta","country":"Indonesia"},{"name":"Manama","lat":26.2361,"lon":50.5831,"population":0,"timezone":"Asia/Bahrain","country":"Bahrain"},{"name":"Uberlândia","lat":-18.9,"lon":-48.28,"population":0,"timezone":"America/Sao_Paulo","country":"Brazil"},{"name":"Sorocaba","lat":-23.49,"lon":-47.47,"population":0,"timezone":"America/Sao_Paulo","country":"Brazil"},{"name":"Tongling","lat":30.9504,"lon":117.78,"population":0,"timezone":"Asia/Shanghai","country":"China"},{"name":"Weihai","lat":37.5,"lon":122.1,"population":0,"timezone":"Asia/Shanghai","country":"China"},{"name":"Mar del Plata","lat":-38,"lon":-57.58,"population":0,"timezone":"America/Argentina/Buenos_Aires","country":"Argentina"},{"name":"Santiago de Cuba","lat":20.025,"lon":-75.8213,"population":0,"timezone":"America/Havana","country":"Cuba"},{"name":"Siping","lat":43.17,"lon":124.33,"population":0,"timezone":"Asia/Shanghai","country":"China"},{"name":"Kagoshima","lat":31.586,"lon":130.5611,"population":0,"timezone":"Asia/Tokyo","country":"Japan"},{"name":"Surakarta","lat":-7.565,"lon":110.825,"population":0,"timezone":"Asia/Jakarta","country":"Indonesia"},{"name":"Makhachkala","lat":42.98,"lon":47.5,"population":0,"timezone":"Europe/Moscow","country":"Russia"},{"name":"Bhavnagar","lat":21.7784,"lon":72.13,"population":0,"timezone":"Asia/Kolkata","country":"India"},{"name":"Uyo","lat":5.008,"lon":7.85,"population":0,"timezone":"Africa/Lagos","country":"Nigeria"},{"name":"Bristol","lat":51.45,"lon":-2.5833,"population":0,"timezone":"Europe/London","country":"United Kingdom"},{"name":"Bahawalpur","lat":29.39,"lon":71.675,"population":0,"timezone":"Asia/Karachi","country":"Pakistan"},{"name":"Kenitra","lat":34.2704,"lon":-6.58,"population":0,"timezone":"Africa/Casablanca","country":"Morocco"},{"name":"Ribeirão Preto","lat":-21.17,"lon":-47.83,"population":0,"timezone":"America/Sao_Paulo","country":"Brazil"},{"name":"Kanazawa","lat":36.56,"lon":136.64,"population":0,"timezone":"Asia/Tokyo","country":"Japan"},{"name":"Orenburg","lat":51.78,"lon":55.11,"population":0,"timezone":"Asia/Yekaterinburg","country":"Russia"},{"name":"Málaga","lat":36.7204,"lon":-4.42,"population":0,"timezone":"Europe/Madrid","country":"Spain"},{"name":"Tabuk","lat":28.3838,"lon":36.555,"population":0,"timezone":"Asia/Riyadh","country":"Saudi Arabia"},{"name":"Puerto la Cruz","lat":10.17,"lon":-64.68,"population":0,"timezone":"America/Caracas","country":"Venezuela"},{"name":"Jiujiang","lat":29.73,"lon":115.98,"population":0,"timezone":"Asia/Shanghai","country":"China"},{"name":"Hisar","lat":29.17,"lon":75.725,"population":0,"timezone":"Asia/Kolkata","country":"India"},{"name":"Kashgar","lat":39.4763,"lon":75.9699,"population":0,"timezone":"Asia/Urumqi","country":"China"},{"name":"Matola","lat":-25.9696,"lon":32.46,"population":0,"timezone":"Africa/Maputo","country":"Mozambique"},{"name":"Bilaspur","lat":22.0904,"lon":82.16,"population":0,"timezone":"Asia/Kolkata","country":"India"},{"name":"Sargodha","lat":32.0854,"lon":72.675,"population":0,"timezone":"Asia/Karachi","country":"Pakistan"},{"name":"Leipzig","lat":51.3354,"lon":12.41,"population":0,"timezone":"Europe/Berlin","country":"Germany"},{"name":"Vilnius","lat":54.6834,"lon":25.3166,"population":0,"timezone":"Europe/Vilnius","country":"Lithuania"},